ListingID,Title,UserID,baseurl,Price,AboutListing,HostName,MemberDate,Lat,Long,BookInstantly,Cancellation,OverallCounter,PageCounter,PageNumber,A_AC,A_Breakfast,A_CableTV,A_CarbonMonoxDetector,A_Doorman,A_Dryer,A_TV,A_Elevator,A_Essentials,A_Events,A_FamilyFriendly,A_FireExt,A_Fireplace,A_FirstAidKit,A_Gym,A_Heat,A_HotTub,A_Intercom,A_Internet,A_Kitchen,A_Parking,A_Pets,A_Pool,A_SafetyCard,A_Shampoo,A_SmokeDetector,A_Smoking,A_Washer,A_Wheelchair,P_Cleaning,P_Deposit,P_ExtraPeople,P_Monthly,P_Weekly,R_CI,R_acc,R_clean,R_comm,R_loc,R_val,RespRate,RespTime,S_Accomodates,S_Bathrooms,S_BedType,S_Bedrooms,S_CheckIn,S_Checkout,S_NumBeds,S_PropType,ShortDesc
11511373,Warm and cozy room in Andorra,60656892,https://www.airbnb.com/s/Andorra?page=1,29,No Description Found,Eugeni,Not Found,42.507795694533144,1.5193269609647007,No,Flexible,1,1,1,0,0,0,0,0,0,1,0,1,0,0,0,0,0,0,0,0,0,0,1,0,0,0,0,0,0,0,0,0,$6.00,Not Found,$14 / night after the first guest,Not Found,Not Found,Not Found,Not Found,Not Found,Not Found,Not Found,Not Found,Not Found,Not Found,2,1,Real Bed,1,Not Found,Not Found,1,Apartment,
7721941,Comfortable room in the center,32962821,https://www.airbnb.com/s/Andorra?page=1,52,No Description Found,Monique,Not Found,42.51175626158212,1.538697186589854,No,Moderate,2,2,1,0,0,0,0,0,0,1,0,1,0,0,0,0,0,0,1,0,0,0,1,0,0,0,0,0,0,0,0,0,Not Found,$173.00,No Charge,Not Found,Not Found,Not Found,Not Found,Not Found,Not Found,Not Found,Not Found,Not Found,Not Found,2,1.5,Real Bed,1,3:00 PM,11:00 AM,1,Apartment,
2688961,Estudio para 3 personas /  WIFI .,4145741,https://www.airbnb.com/s/Andorra?page=1,52,No Description Found,Marc,Not Found,42.53496839108761,1.5789559622919969,No,Strict,3,3,1,0,0,0,0,0,0,1,0,0,0,0,0,0,0,0,0,0,0,0,1,0,0,0,0,1,0,0,0,0,Not Found,Not Found,No Charge,Not Found,Not Found,Not Found,Not Found,Not Found,Not Found,Not Found,Not Found,Not Found,Not Found,3,1,Not Found,1,3:00 AM,12:00 PM (noon),2,Apartment,
8546314,"Penthouse Andorra, Escaldes bg",42935899,https://www.airbnb.com/s/Andorra?page=1,29,No Description Found,Aliena,Not Found,42.51266564020056,1.5335721884086915,No,Flexible,4,4,1,0,0,0,0,0,0,1,0,1,0,0,0,0,0,0,1,0,0,0,1,0,0,0,0,0,0,0,0,0,$6.00,Not Found,$12 / night after 2 guests,Not Found,Not Found,Not Found,Not Found,Not Found,Not Found,Not Found,Not Found,Not Found,Not Found,3,1,Real Bed,1,Not Found,Not Found,1,Apartment,
133792,Cozy 1 bedroom apt with fireplace,656777,https://www.airbnb.com/s/Andorra?page=1,57,No Description Found,Pere,Not Found,42.582978662405594,1.5187953130091216,No,Moderate,5,5,1,0,0,0,0,0,0,1,0,1,0,0,0,0,0,0,0,0,0,0,1,0,0,0,0,0,0,0,0,0,$23.00,$115.00,No Charge,Not Found,Not Found,Not Found,Not Found,Not Found,Not Found,Not Found,Not Found,Not Found,Not Found,2,0,Real Bed,1,Not Found,Not Found,1,Apartment,
11878261,Bunk bed in a small room,63334866,https://www.airbnb.com/s/Andorra?page=1,26,No Description Found,David,Not Found,42.46077528385369,1.48742996716406,No,Flexible,6,6,1,0,0,0,0,0,0,0,0,1,0,0,0,0,0,0,0,0,0,0,1,0,0,0,0,1,0,0,0,0,Not Found,Not Found,No Charge,Not Found,Not Found,Not Found,Not Found,Not Found,Not Found,Not Found,Not Found,Not Found,Not Found,2,1,Not Found,1,Not Found,Not Found,2,Bed & Breakfast,
1871031,Andorra's Balcony Wifi,9750905,https://www.airbnb.com/s/Andorra?page=1,57,No Description Found,Jordi,Not Found,42.514093900183234,1.5378387735668577,No,Strict,7,7,1,0,0,0,0,0,0,1,0,1,0,0,0,0,0,0,0,0,0,0,1,0,0,0,0,0,0,0,0,0,$29.00,$173.00,No Charge,Not Found,Not Found,Not Found,Not Found,Not Found,Not Found,Not Found,Not Found,Not Found,Not Found,4,1,Not Found,1,3:00 PM,12:00 PM (noon),2,Apartment,
4444041,"Apartment Ordino, Vallnord",9117065,https://www.airbnb.com/s/Andorra?page=1,71,No Description Found,Sarah,Not Found,42.57704648435728,1.5195791853157343,No,Moderate,8,8,1,0,0,0,0,0,0,1,0,1,0,0,0,0,0,0,1,0,0,0,1,0,0,0,0,0,0,0,0,0,$46.00,$288.00,No Charge,Not Found,Not Found,Not Found,Not Found,Not Found,Not Found,Not Found,Not Found,Not Found,Not Found,5,2,Not Found,3,5:00 PM,11:00 AM,5,Apartment,
10472938,Apartamentos Velvet,53971155,https://www.airbnb.com/s/Andorra?page=1,92,No Description Found,Tanya,Not Found,42.57951038811059,1.481337174315959,No,Flexible,9,9,1,0,0,0,0,0,0,1,0,1,0,0,0,0,0,0,1,0,0,0,1,0,0,0,0,0,0,0,0,0,Not Found,Not Found,No Charge,Not Found,Not Found,Not Found,Not Found,Not Found,Not Found,Not Found,Not Found,Not Found,Not Found,5,1,Not Found,1,Not Found,Not Found,5,Apartment,
8943937,Apartamento en Ordino,46752894,https://www.airbnb.com/s/Andorra?page=1,161,No Description Found,Ignacio,Not Found,42.55563228980685,1.5342222447548697,No,Flexible,10,10,1,0,0,0,0,0,0,1,0,0,0,0,0,0,0,0,1,0,0,0,1,0,0,0,0,0,0,0,0,0,Not Found,Not Found,No Charge,Not Found,Not Found,Not Found,Not Found,Not Found,Not Found,Not Found,Not Found,Not Found,Not Found,2,2,Not Found,1,Not Found,Not Found,4,Apartment,
1376652,Cozy new apartment at El Tarter,7457954,https://www.airbnb.com/s/Andorra?page=1,79,No Description Found,Marc,Not Found,42.579909720652275,1.6498411283917656,No,Moderate,11,11,1,0,0,0,0,0,0,1,0,0,0,0,0,0,0,0,1,0,0,0,1,0,0,0,0,0,0,0,0,0,$12.00,$345.00,No Charge,Not Found,Not Found,Not Found,Not Found,Not Found,Not Found,Not Found,Not Found,Not Found,Not Found,6,2,Not Found,2,Not Found,Not Found,3,Apartment,
4212941,Apartamento Bosquet,21863819,https://www.airbnb.com/s/Andorra?page=1,57,No Description Found,Israel,Not Found,42.56052398169264,1.6027445812244705,No,Flexible,12,12,1,0,0,0,0,0,0,1,0,1,0,0,0,0,0,0,0,0,0,0,1,0,0,0,0,0,0,0,0,0,Not Found,Not Found,No Charge,Not Found,Not Found,Not Found,Not Found,Not Found,Not Found,Not Found,Not Found,Not Found,Not Found,6,1,Not Found,2,Not Found,Not Found,4,Apartment,
10249405,Beautiful 1BD apt PERFECT location,52224801,https://www.airbnb.com/s/Andorra?page=1,79,No Description Found,Sandy,Not Found,42.54213860411043,1.7334411929651021,No,Moderate,13,13,1,0,0,0,0,0,0,1,0,1,0,0,0,0,0,0,0,0,0,0,1,0,0,0,0,0,0,0,0,0,$35.00,$115.00,No Charge,Not Found,Not Found,Not Found,Not Found,Not Found,Not Found,Not Found,Not Found,Not Found,Not Found,4,1,Not Found,1,3:00 PM,11:00 AM,2,Apartment,
9421898,DUPLEX ATICO LES BORDES D`ARINSAL,9626186,https://www.airbnb.com/s/Andorra?page=1,80,No Description Found,Pilar,Not Found,42.5716201339333,1.482683720632019,No,Flexible,14,14,1,0,0,0,0,0,0,1,0,1,0,0,0,0,0,0,0,0,0,0,1,0,0,0,0,0,0,0,0,0,$69.00,Not Found,$29 / night after 2 guests,Not Found,Not Found,Not Found,Not Found,Not Found,Not Found,Not Found,Not Found,Not Found,Not Found,4,1.5,Not Found,2,Not Found,Not Found,3,Apartment,
9764560,Pis restaurat en una borda antiga,17500070,https://www.airbnb.com/s/Andorra?page=1,87,No Description Found,Alba,Not Found,42.54515064868071,1.4746540985530796,No,Flexible,15,15,1,0,0,0,0,0,0,1,0,1,0,0,0,0,0,0,0,0,0,0,1,0,0,0,0,0,0,0,0,0,Not Found,Not Found,$29 / night after 3 guests,Not Found,Not Found,Not Found,Not Found,Not Found,Not Found,Not Found,Not Found,Not Found,Not Found,4,1,Not Found,1,Not Found,Not Found,2,Apartment,
6349607,Habitación doble céntrica con WIFI,33078204,https://www.airbnb.com/s/Andorra?page=1,48,No Description Found,Álvaro,Not Found,42.50588382343786,1.5291454601174186,No,Flexible,16,16,1,0,0,0,0,0,0,1,0,1,0,0,0,0,0,0,0,0,0,0,1,0,0,0,0,0,0,0,0,0,Not Found,Not Found,$12 / night after the first guest,Not Found,Not Found,Not Found,Not Found,Not Found,Not Found,Not Found,Not Found,Not Found,Not Found,2,1,Real Bed,1,Not Found,Not Found,1,Apartment,
4226020,Comfortable apartment in Sispony,6546781,https://www.airbnb.com/s/Andorra?page=1,92,No Description Found,Yulia,Not Found,42.539153233809145,1.51580835864269,No,Moderate,17,17,1,0,0,0,0,0,0,0,0,1,0,0,0,0,0,0,0,0,0,0,1,0,0,0,0,1,0,0,0,0,Not Found,$288.00,Not Found,Not Found,Not Found,Not Found,Not Found,Not Found,Not Found,Not Found,Not Found,Not Found,Not Found,3,1,Real Bed,1,12PM (noon),2:00 PM,1,Apartment,
11671070,Loft a few steps from ski slopes,61965399,https://www.airbnb.com/s/Andorra?page=1,66,No Description Found,Miguel Angel,Not Found,42.56396351678246,1.6788003314596975,No,Moderate,18,18,1,0,0,0,0,0,0,1,0,1,0,0,0,0,0,0,0,0,0,0,1,0,0,0,0,0,0,0,0,0,$12.00,$345.00,No Charge,Not Found,Not Found,Not Found,Not Found,Not Found,Not Found,Not Found,Not Found,Not Found,Not Found,5,1,Not Found,2,Not Found,Not Found,2,Apartment,
8306414,Modern apartment on the slopes,43793767,https://www.airbnb.com/s/Andorra?page=2,190,No Description Found,Marta,Not Found,42.53981860793515,1.7316631551906736,No,Strict,19,1,2,0,0,0,0,0,0,1,0,1,0,0,0,0,0,0,1,0,0,0,1,0,0,0,0,0,0,0,0,0,$58.00,$345.00,No Charge,Not Found,Not Found,Not Found,Not Found,Not Found,Not Found,Not Found,Not Found,Not Found,Not Found,4,1,Not Found,1,5:00 PM,12:00 PM (noon),3,Apartment,
9763273,Lake Placid Studio 4 personas,14081684,https://www.airbnb.com/s/Andorra?page=2,115,No Description Found,Inocencia,Not Found,42.542850545618,1.733608938242537,No,Flexible,20,2,2,0,0,0,0,0,0,1,0,1,0,0,0,0,0,0,1,0,0,0,1,0,0,0,0,0,0,0,0,0,$43.00,$173.00,No Charge,Not Found,Not Found,Not Found,Not Found,Not Found,Not Found,Not Found,Not Found,Not Found,Not Found,4,1,Pull-out Sofa,0,Not Found,Not Found,1,Apartment,
796858,Apartamento chalet La Massana WIFI,4145741,https://www.airbnb.com/s/Andorra?page=2,80,No Description Found,Marc,Not Found,42.55071438772114,1.5168870385771054,No,Strict,21,3,2,0,0,0,0,0,0,1,0,0,0,0,0,0,0,0,0,0,0,0,1,0,0,0,0,1,0,0,0,0,Not Found,Not Found,No Charge,Not Found,Not Found,Not Found,Not Found,Not Found,Not Found,Not Found,Not Found,Not Found,Not Found,5,1,Real Bed,1,3:00 PM,12:00 PM (noon),1,Apartment,
3451476,Apartamento en Andorra 2 dorm.,17394459,https://www.airbnb.com/s/Andorra?page=2,80,No Description Found,Ana,Not Found,42.498653775954935,1.50058653898878,No,Moderate,22,4,2,0,0,0,0,0,0,1,0,1,0,0,0,0,0,0,1,0,0,0,1,0,0,0,0,0,0,0,0,0,Not Found,$173.00,No Charge,Not Found,Not Found,Not Found,Not Found,Not Found,Not Found,Not Found,Not Found,Not Found,Not Found,4,1,Not Found,2,3:00 PM,1:00 PM,3,Apartment,
8717082,Acogedor apartamento muy centrico,35683398,https://www.airbnb.com/s/Andorra?page=2,52,No Description Found,Noe,Not Found,42.50798920445317,1.523188483765113,No,Flexible,23,5,2,0,0,0,0,0,0,1,0,1,0,0,0,0,0,0,0,0,0,0,1,0,0,0,0,0,0,0,0,0,Not Found,Not Found,No Charge,Not Found,Not Found,Not Found,Not Found,Not Found,Not Found,Not Found,Not Found,Not Found,Not Found,2,1,Real Bed,1,Not Found,Not Found,1,Apartment,
5670448,Habitacion privada en Átic  Andorra,14538867,https://www.airbnb.com/s/Andorra?page=2,45,No Description Found,Evelyn,Not Found,42.50572892302421,1.52997023660519,No,Strict,24,6,2,0,0,0,0,0,0,1,0,1,0,0,0,0,0,0,0,0,0,0,1,0,0,0,0,1,0,0,0,0,$35.00,Not Found,No Charge,Not Found,Not Found,Not Found,Not Found,Not Found,Not Found,Not Found,Not Found,Not Found,Not Found,3,1.5,Not Found,1,4:00 PM,11:00 AM,2,House,
6325728,En el corazón de Andorra la Vella,32917079,https://www.airbnb.com/s/Andorra?page=2,68,No Description Found,Diego,Not Found,42.50862286135941,1.5240827454852308,No,Moderate,25,7,2,0,0,0,0,0,0,1,0,1,0,0,0,0,0,0,0,0,0,0,1,0,0,0,0,0,0,0,0,0,Not Found,Not Found,$12 / night after the first guest,Not Found,Not Found,Not Found,Not Found,Not Found,Not Found,Not Found,Not Found,Not Found,Not Found,2,1,Not Found,1,Not Found,Not Found,2,Apartment,
9328316,"Buenas vistas, centrico y acojedor",48414721,https://www.airbnb.com/s/Andorra?page=2,37,No Description Found,Leini,Not Found,42.50329134032893,1.5126724463287113,No,Flexible,26,8,2,0,0,0,0,0,0,1,0,0,0,0,0,0,0,0,1,0,0,1,1,0,0,0,0,0,0,0,0,0,$14.00,$104.00,No Charge,Not Found,Not Found,Not Found,Not Found,Not Found,Not Found,Not Found,Not Found,Not Found,Not Found,2,1,Real Bed,1,12PM (noon),11:00 AM,1,Apartment,
7742165,Superb Suite in Center ANDORRA,32962821,https://www.airbnb.com/s/Andorra?page=2,69,No Description Found,Monique,Not Found,42.51054404140235,1.5404214201127024,No,Moderate,27,9,2,0,0,0,0,0,0,1,0,1,0,0,0,0,0,0,0,0,0,0,1,0,0,0,0,0,0,0,0,0,Not Found,$173.00,No Charge,Not Found,Not Found,Not Found,Not Found,Not Found,Not Found,Not Found,Not Found,Not Found,Not Found,2,1,Real Bed,1,3:00 PM,11:00 AM,1,Apartment,
6887754,Acollidora casa entorn natural,27483844,https://www.airbnb.com/s/Andorra?page=2,58,No Description Found,M. Àngels,Not Found,42.47721017656954,1.4884229350034226,No,Moderate,28,10,2,0,0,0,0,0,0,1,0,1,0,0,0,0,0,0,0,0,0,0,1,0,0,0,0,0,0,0,0,0,Not Found,Not Found,No Charge,Not Found,Not Found,Not Found,Not Found,Not Found,Not Found,Not Found,Not Found,Not Found,Not Found,2,1.5,Real Bed,1,12AM (midnight),3:00 PM,1,House,
9840157,Ático céntrico con bonitas vistas,49397400,https://www.airbnb.com/s/Andorra?page=2,40,No Description Found,Sandra,Not Found,42.54507415013664,1.5151787274790518,No,Moderate,29,11,2,0,0,0,0,0,0,1,0,1,0,0,0,0,0,0,0,0,0,0,1,0,0,0,0,0,0,0,1,0,$12.00,Not Found,No Charge,Not Found,Not Found,Not Found,Not Found,Not Found,Not Found,Not Found,Not Found,Not Found,Not Found,2,1,Real Bed,1,8:00 AM,2:00 PM,1,Apartment,
8267939,Estudio para 2 personas WIFI Modern,4145741,https://www.airbnb.com/s/Andorra?page=2,52,No Description Found,Marc,Not Found,42.53504202399989,1.5789925337839892,No,Strict,30,12,2,0,0,0,0,0,0,1,0,0,0,0,0,0,0,0,1,0,0,0,1,0,0,0,0,1,0,0,0,0,Not Found,Not Found,No Charge,Not Found,Not Found,Not Found,Not Found,Not Found,Not Found,Not Found,Not Found,Not Found,Not Found,2,1,Pull-out Sofa,0,3:00 PM,12:00 PM (noon),1,Apartment,
11466942,Sol vista WIFI 2hab Andorra Encamp,4145741,https://www.airbnb.com/s/Andorra?page=2,75,No Description Found,Marc,Not Found,42.535239597863196,1.579177487267995,No,Flexible,31,13,2,0,0,0,0,0,0,1,0,0,0,0,0,0,0,0,0,0,0,0,1,0,0,0,0,1,0,0,0,0,Not Found,Not Found,No Charge,Not Found,Not Found,Not Found,Not Found,Not Found,Not Found,Not Found,Not Found,Not Found,Not Found,6,1,Not Found,2,Not Found,Not Found,3,Apartment,
10079855,Appartement 3 min des pistes,17956386,https://www.airbnb.com/s/Andorra?page=2,56,No Description Found,Guilllaume,Not Found,42.529571131954384,1.5712034128355314,No,Strict,32,14,2,0,0,0,0,0,0,1,0,1,0,0,0,0,0,0,0,0,0,0,1,0,0,0,0,0,0,0,0,0,$37.00,$575.00,No Charge,Not Found,Not Found,Not Found,Not Found,Not Found,Not Found,Not Found,Not Found,Not Found,Not Found,4,1,Not Found,2,12PM (noon),1:00 PM,2,Apartment,
2349512,Attic with woodstove & views. ,656777,https://www.airbnb.com/s/Andorra?page=2,68,No Description Found,Pere,Not Found,42.58367822355965,1.5186108939895866,No,Moderate,33,15,2,0,0,0,0,0,0,1,0,1,0,0,0,0,0,0,0,0,0,0,1,0,0,0,0,0,0,0,0,0,$23.00,$173.00,$23 / night after 2 guests,Not Found,Not Found,Not Found,Not Found,Not Found,Not Found,Not Found,Not Found,Not Found,Not Found,3,1,Not Found,2,Not Found,Not Found,2,Apartment,
5704139,"Centrico y tranquilo Andorra, wifi",4160764,https://www.airbnb.com/s/Andorra?page=2,75,No Description Found,Antonio,Not Found,42.50822829783195,1.519991492117287,No,Strict,34,16,2,0,0,0,0,0,0,1,0,1,0,0,0,0,0,0,0,0,0,0,1,0,0,0,0,0,0,0,0,0,Not Found,$201.00,$29 / night after 2 guests,Not Found,Not Found,Not Found,Not Found,Not Found,Not Found,Not Found,Not Found,Not Found,Not Found,4,1,Not Found,1,2:00 PM,10:00 AM,2,Apartment,
9293989,Atico Andorra La Margineda,23222617,https://www.airbnb.com/s/Andorra?page=2,35,No Description Found,Jesica,Not Found,42.487007228793026,1.4917448106614792,No,Flexible,35,17,2,0,0,0,0,0,0,0,0,0,0,0,0,0,0,0,1,0,0,1,1,0,0,0,0,0,0,0,1,0,Not Found,Not Found,No Charge,$690 /month,$253 /week,Not Found,Not Found,Not Found,Not Found,Not Found,Not Found,Not Found,Not Found,2,1,Not Found,1,Not Found,Not Found,2,Apartment,
7357572,Hab. Individual con vistas montaña,15132028,https://www.airbnb.com/s/Andorra?page=2,35,No Description Found,Elisabeth,Not Found,42.55693585663697,1.5063094421159557,No,Flexible,36,18,2,0,0,0,0,0,0,1,0,1,0,0,0,0,0,0,0,0,0,0,1,0,0,0,0,1,0,0,0,0,Not Found,Not Found,Not Found,Not Found,Not Found,Not Found,Not Found,Not Found,Not Found,Not Found,Not Found,Not Found,Not Found,1,1,Real Bed,1,5:00 PM,Not Found,1,Apartment,
10111280,Ático en el Centro de Andorra,11095978,https://www.airbnb.com/s/Andorra?page=3,115,No Description Found,Daniel,Not Found,42.51065028895902,1.5475062352630227,No,Flexible,37,1,3,0,0,0,0,0,0,1,0,1,0,0,0,0,0,0,0,0,0,0,1,0,0,0,0,1,0,0,0,0,$23.00,$115.00,No Charge,$1381 /month,$575 /week,Not Found,Not Found,Not Found,Not Found,Not Found,Not Found,Not Found,Not Found,4,1,Not Found,1,Not Found,Not Found,2,Apartment,
9800068,Apartamento amplio en pleno centro,4331683,https://www.airbnb.com/s/Andorra?page=3,38,No Description Found,Marcos Y Katia,Not Found,42.50671740687017,1.5303095587608833,No,Flexible,38,2,3,0,0,0,0,0,0,1,0,1,0,0,0,0,0,0,0,0,0,0,1,0,0,0,0,0,0,0,0,0,Not Found,$104.00,$23 / night after the first guest,$690 /month,$230 /week,Not Found,Not Found,Not Found,Not Found,Not Found,Not Found,Not Found,Not Found,2,1.5,Not Found,1,Not Found,Not Found,2,Apartment,
3266431,Encamp centrico / tranquilo WIFI ,4145741,https://www.airbnb.com/s/Andorra?page=3,69,No Description Found,Marc,Not Found,42.535128493211545,1.5789831619999348,No,Strict,39,3,3,0,0,0,0,0,0,1,0,0,0,0,0,0,0,0,0,0,0,0,1,0,0,0,0,1,0,0,0,0,Not Found,Not Found,No Charge,Not Found,Not Found,Not Found,Not Found,Not Found,Not Found,Not Found,Not Found,Not Found,Not Found,4,1,Not Found,1,3:00 PM,12:00 PM (noon),2,Apartment,
9291307,Acogedor ático al pie del Funicamp,45502209,https://www.airbnb.com/s/Andorra?page=3,121,No Description Found,Girasol,Not Found,42.53643225076441,1.5871561585032397,No,Strict,40,4,3,0,0,0,0,0,0,1,0,1,0,0,0,0,0,0,0,0,0,0,1,0,0,0,0,0,0,0,0,0,$17.00,Not Found,No Charge,Not Found,Not Found,Not Found,Not Found,Not Found,Not Found,Not Found,Not Found,Not Found,Not Found,7,2,Not Found,3,4:00 PM,12:00 PM (noon),5,Apartment,
10027443,Villa Arcalís VallNord,51483380,https://www.airbnb.com/s/Andorra?page=3,80,No Description Found,Marta,Not Found,42.62165976877572,1.5387019968725346,No,Moderate,41,5,3,0,0,0,0,0,0,1,0,1,0,0,0,0,0,0,0,0,0,0,1,0,0,0,0,0,0,0,0,0,$17.00,$230.00,No Charge,Not Found,Not Found,Not Found,Not Found,Not Found,Not Found,Not Found,Not Found,Not Found,Not Found,4,1,Not Found,1,6:00 PM,Not Found,3,Chalet,
355983,Charming 2 Bd Apartment in Vallnord,656777,https://www.airbnb.com/s/Andorra?page=3,68,No Description Found,Pere,Not Found,42.58144715399003,1.5176098087532577,No,Moderate,42,6,3,0,0,0,0,0,0,1,0,1,0,0,0,0,0,0,0,0,0,0,1,0,0,0,0,0,0,0,0,0,$23.00,$173.00,$23 / night after 2 guests,Not Found,Not Found,Not Found,Not Found,Not Found,Not Found,Not Found,Not Found,Not Found,Not Found,4,1,Not Found,2,Not Found,Not Found,3,Apartment,
809733,"Apartament Encamp, soleado . WIFI",4145741,https://www.airbnb.com/s/Andorra?page=3,68,No Description Found,Marc,Not Found,42.53685694408191,1.5788165485216115,No,Strict,43,7,3,0,0,0,0,0,0,1,0,0,0,0,0,0,0,0,0,0,0,0,1,0,0,0,0,1,0,0,0,0,Not Found,Not Found,No Charge,Not Found,Not Found,Not Found,Not Found,Not Found,Not Found,Not Found,Not Found,Not Found,Not Found,5,1,Not Found,1,3:00 PM,12:00 PM (noon),2,Apartment,
809692,Estudio moderno  Encamp 4pax.OFERTA,4145741,https://www.airbnb.com/s/Andorra?page=3,52,No Description Found,Marc,Not Found,42.53300932321827,1.5899051367649641,No,Strict,44,8,3,0,0,0,0,0,0,1,0,0,0,0,0,0,0,0,1,0,0,0,1,0,0,0,0,1,0,0,0,0,Not Found,Not Found,No Charge,Not Found,Not Found,Not Found,Not Found,Not Found,Not Found,Not Found,Not Found,Not Found,Not Found,4,1,Not Found,1,3:00 PM,12:00 PM (noon),2,Apartment,
9518143,"Céntrica y tranquila, piso moderno",49316988,https://www.airbnb.com/s/Andorra?page=3,24,No Description Found,Brian,Not Found,42.501270666626816,1.5102120477909613,No,Strict,45,9,3,0,0,0,0,0,0,1,0,1,0,0,0,0,0,0,0,0,0,0,1,0,0,0,0,0,0,0,0,0,Not Found,$115.00,$12 / night after the first guest,Not Found,Not Found,Not Found,Not Found,Not Found,Not Found,Not Found,Not Found,Not Found,Not Found,2,1,Not Found,1,Not Found,9:00 AM,2,Apartment,
2001040,Appartement Ordino Vall Nord,9117065,https://www.airbnb.com/s/Andorra?page=3,78,No Description Found,Sarah,Not Found,42.57237217765742,1.5191598358334912,No,Moderate,46,10,3,0,0,0,0,0,0,1,0,1,0,0,0,0,0,0,1,0,0,0,1,0,0,0,0,0,0,0,0,0,$46.00,$288.00,No Charge,Not Found,Not Found,Not Found,Not Found,Not Found,Not Found,Not Found,Not Found,Not Found,Not Found,6,2,Not Found,3,4:00 PM,11:00 AM,4,Apartment,
1909809,Charming 3 bedroom Apt. in Vallnord,656777,https://www.airbnb.com/s/Andorra?page=3,68,No Description Found,Pere,Not Found,42.58177118128579,1.5176278371898773,No,Moderate,47,11,3,0,0,0,0,0,0,1,0,0,0,0,0,0,0,0,0,0,0,0,1,0,0,0,0,1,0,0,0,0,$23.00,$173.00,$23 / night after 2 guests,Not Found,Not Found,Not Found,Not Found,Not Found,Not Found,Not Found,Not Found,Not Found,Not Found,5,1,Not Found,3,Not Found,Not Found,3,Apartment,
1909353,Warm & comfortable room en Andorra,6546781,https://www.airbnb.com/s/Andorra?page=3,43,No Description Found,Yulia,Not Found,42.53954830950396,1.5164522405202148,No,Strict,48,12,3,0,0,0,0,0,0,1,0,1,0,0,0,0,0,0,0,0,0,0,1,0,0,0,0,0,0,0,0,0,Not Found,Not Found,No Charge,Not Found,Not Found,Not Found,Not Found,Not Found,Not Found,Not Found,Not Found,Not Found,Not Found,2,1,Real Bed,1,12PM (noon),12:00 PM (noon),1,Apartment,
809763,"Apto, cerca del centro de Andorra .",4145741,https://www.airbnb.com/s/Andorra?page=3,75,No Description Found,Marc,Not Found,42.522194288401636,1.5592202784462776,No,Strict,49,13,3,0,0,0,0,0,0,1,0,0,0,0,0,0,0,0,0,0,0,0,1,0,0,0,0,1,0,0,0,0,Not Found,Not Found,No Charge,Not Found,Not Found,Not Found,Not Found,Not Found,Not Found,Not Found,Not Found,Not Found,Not Found,5,1,Not Found,1,3:00 PM,12:00 PM (noon),2,Apartment,
9447962,Andorra's Balcony Wifi II,9750905,https://www.airbnb.com/s/Andorra?page=3,57,No Description Found,Jordi,Not Found,42.51396138604922,1.5365311622130589,No,Strict,50,14,3,0,0,0,0,0,0,1,0,1,0,0,0,0,0,0,0,0,0,0,1,0,0,0,0,0,0,0,0,0,$29.00,$173.00,No Charge,Not Found,Not Found,Not Found,Not Found,Not Found,Not Found,Not Found,Not Found,Not Found,Not Found,4,1,Not Found,1,3:00 PM,12:00 PM (noon),2,Apartment,
11314807,Encamp-2minFUNICAMP -WIFI GARTIS,28288616,https://www.airbnb.com/s/Andorra?page=3,52,No Description Found,Oscar,Not Found,42.537692011912,1.5859361589560828,No,Moderate,51,15,3,0,0,0,0,0,0,1,0,1,0,0,0,0,0,0,0,0,0,0,1,0,0,0,0,0,0,0,0,0,$12.00,Not Found,No Charge,Not Found,Not Found,Not Found,Not Found,Not Found,Not Found,Not Found,Not Found,Not Found,Not Found,2,1,Real Bed,1,5:00 PM,1:00 PM,1,Apartment,
1771715,Quiet apartment in Encamp.,9305802,https://www.airbnb.com/s/Andorra?page=3,75,No Description Found,Mariona,Not Found,42.53365835519114,1.5814914715731416,No,Moderate,52,16,3,0,0,0,0,0,0,1,0,1,0,0,0,0,0,0,1,0,0,0,1,0,0,0,0,0,0,0,0,0,$23.00,$115.00,No Charge,Not Found,Not Found,Not Found,Not Found,Not Found,Not Found,Not Found,Not Found,Not Found,Not Found,5,2,Not Found,3,12PM (noon),12:00 PM (noon),4,Apartment,
6417718,Apartamento als Cortals d´Encamp,19425368,https://www.airbnb.com/s/Andorra?page=3,35,No Description Found,Alberto,Not Found,42.5337311207963,1.5895610408393899,No,Flexible,53,17,3,0,0,0,0,0,0,1,0,1,0,0,0,0,0,0,1,0,0,0,1,0,0,0,0,0,0,0,0,0,Not Found,Not Found,No Charge,Not Found,Not Found,Not Found,Not Found,Not Found,Not Found,Not Found,Not Found,Not Found,Not Found,3,1,Not Found,0,Not Found,Not Found,2,Apartment,
10334577,Apartamento de tres habitaciones.,24972547,https://www.airbnb.com/s/Andorra?page=3,46,No Description Found,Maria Manuela,Not Found,42.531088429548255,1.5678353232613509,No,Strict,54,18,3,0,0,0,0,0,0,1,0,0,0,0,0,0,0,0,1,0,0,0,1,0,0,0,0,0,0,0,1,0,$69.00,$575.00,$46 / night after the first guest,Not Found,Not Found,Not Found,Not Found,Not Found,Not Found,Not Found,Not Found,Not Found,Not Found,10,1,Not Found,3,3:00 PM,12:00 PM (noon),8,Apartment,
793572,Com a casa,4180846,https://www.airbnb.com/s/Andorra?page=4,173,No Description Found,Roser,Not Found,42.554642985367096,1.53454322525165,No,Moderate,55,1,4,0,0,0,0,0,0,1,0,0,0,0,0,0,0,0,1,0,0,0,1,0,0,0,0,0,0,0,1,0,$35.00,Not Found,No Charge,Not Found,Not Found,Not Found,Not Found,Not Found,Not Found,Not Found,Not Found,Not Found,Not Found,4,1,Not Found,2,Not Found,Not Found,2,Apartment,
5753285,Andorra-Encamp-WIFI-Vista panoramic,4145741,https://www.airbnb.com/s/Andorra?page=4,75,No Description Found,Marc,Not Found,42.53495403419923,1.5806645599073215,No,Strict,56,2,4,0,0,0,0,0,0,1,0,0,0,0,0,0,0,0,0,0,0,0,1,0,0,0,0,1,0,0,0,0,Not Found,Not Found,No Charge,Not Found,Not Found,Not Found,Not Found,Not Found,Not Found,Not Found,Not Found,Not Found,Not Found,6,1,Not Found,2,3:00 PM,12:00 PM (noon),3,Apartment,
9498923,Estudio en Soldeu,48686019,https://www.airbnb.com/s/Andorra?page=4,63,No Description Found,Diego,Not Found,42.56148955923131,1.6832383680043335,No,Flexible,57,3,4,0,0,0,0,0,0,1,0,1,0,0,0,0,0,0,0,0,0,0,1,0,0,0,0,1,0,0,0,0,$35.00,$173.00,No Charge,$633 /month,$403 /week,Not Found,Not Found,Not Found,Not Found,Not Found,Not Found,Not Found,Not Found,4,1,Not Found,0,Not Found,Not Found,2,Apartment,
10629990,Amazing studio with beautiful view,52224801,https://www.airbnb.com/s/Andorra?page=4,91,No Description Found,Sandy,Not Found,42.540040032665075,1.733045748346601,No,Flexible,58,4,4,0,0,0,0,0,0,1,0,1,0,0,0,0,0,0,0,0,0,0,1,0,0,0,0,0,0,0,0,0,$23.00,$115.00,No Charge,Not Found,Not Found,Not Found,Not Found,Not Found,Not Found,Not Found,Not Found,Not Found,Not Found,4,1,Not Found,0,3:00 PM,11:00 AM,2,Apartment,
11898674,Mountain retreat,48146701,https://www.airbnb.com/s/Andorra?page=4,173,No Description Found,Anne,Not Found,42.57792913192249,1.480088712096195,No,Flexible,59,5,4,0,0,0,0,0,0,1,0,1,0,0,0,0,0,0,1,0,0,0,1,0,0,0,0,0,0,0,0,0,Not Found,Not Found,No Charge,Not Found,Not Found,Not Found,Not Found,Not Found,Not Found,Not Found,Not Found,Not Found,Not Found,7,1.5,Not Found,2,Not Found,Not Found,4,Apartment,
7497684,House with big view to the mountain,39269005,https://www.airbnb.com/s/Andorra?page=4,156,No Description Found,Jordi,Not Found,42.54017739414333,1.5177091581081992,No,Moderate,60,6,4,0,0,0,0,0,0,1,0,1,0,0,0,0,0,0,0,0,0,0,1,0,0,0,0,0,0,0,0,0,$58.00,$575.00,No Charge,Not Found,Not Found,Not Found,Not Found,Not Found,Not Found,Not Found,Not Found,Not Found,Not Found,4,2,Not Found,3,12PM (noon),2:00 PM,3,House,
703337,Place of charm and tranquility,3611943,https://www.airbnb.com/s/Andorra?page=4,68,No Description Found,Joan M,Not Found,42.55576260181835,1.536584451589315,No,Strict,61,7,4,0,0,0,0,0,0,1,0,1,0,0,0,0,0,0,1,0,0,0,0,0,0,0,0,0,0,0,0,0,$17.00,$173.00,Not Found,Not Found,Not Found,Not Found,Not Found,Not Found,Not Found,Not Found,Not Found,Not Found,Not Found,4,2,Not Found,1,1:00 PM,12:00 PM (noon),2,House,
12007210,Un chalet  en la montaña (ENCAMP),44413717,https://www.airbnb.com/s/Andorra?page=4,230,No Description Found,Anna,Not Found,42.531218656322444,1.5912656491122286,No,Flexible,62,8,4,0,0,0,0,0,0,1,0,0,0,1,0,0,0,0,1,0,0,0,1,0,0,0,0,0,0,0,0,0,Not Found,Not Found,No Charge,Not Found,Not Found,Not Found,Not Found,Not Found,Not Found,Not Found,Not Found,Not Found,Not Found,5,2,Not Found,3,Not Found,Not Found,3,House,
56543,Andorra downtown apartment,96815,https://www.airbnb.com/s/Andorra?page=4,65,No Description Found,Alfa,Not Found,42.537220165647796,1.5790728879241813,No,Strict,63,9,4,0,0,0,0,0,0,1,0,0,0,0,0,0,0,0,1,0,0,0,1,0,0,0,0,0,0,0,1,0,Not Found,Not Found,No Charge,Not Found,Not Found,Not Found,Not Found,Not Found,Not Found,Not Found,Not Found,Not Found,Not Found,2,1,Real Bed,1,Not Found,Not Found,1,Apartment,
4614348,Cozy T2 close to El tarter ski lift,23627231,https://www.airbnb.com/s/Andorra?page=4,75,No Description Found,Muriel,Not Found,42.58100088484787,1.6448721320338622,No,Moderate,64,10,4,0,0,0,0,0,0,1,0,1,0,0,0,0,0,0,1,0,0,0,1,0,0,0,0,0,0,0,0,0,$29.00,$575.00,$12 / night after 2 guests,Not Found,Not Found,Not Found,Not Found,Not Found,Not Found,Not Found,Not Found,Not Found,Not Found,4,1,Not Found,1,3:00 PM,12:00 PM (noon),2,Apartment,
2091368,Duplex 2 habitaciones Escaldes,10579767,https://www.airbnb.com/s/Andorra?page=4,63,No Description Found,Vanessa,Not Found,42.50744798599604,1.5515403528878418,No,Moderate,65,11,4,0,0,0,0,0,0,1,0,1,0,0,0,0,0,0,1,0,0,0,1,0,0,0,0,0,0,0,0,0,Not Found,$173.00,$17 / night after 4 guests,Not Found,Not Found,Not Found,Not Found,Not Found,Not Found,Not Found,Not Found,Not Found,Not Found,5,1.5,Not Found,2,Not Found,Not Found,3,Apartment,
8982344,LUXURY SKI APARTMENT ARINSAL CENTRE,42509780,https://www.airbnb.com/s/Andorra?page=4,190,No Description Found,Kim,Not Found,42.57609605998891,1.483767814654833,No,Flexible,66,12,4,0,0,0,0,0,0,1,0,1,0,0,0,0,0,0,0,0,0,0,1,0,0,0,0,0,0,0,0,0,$44.00,$291.00,Not Found,Not Found,Not Found,Not Found,Not Found,Not Found,Not Found,Not Found,Not Found,Not Found,Not Found,8,2,Not Found,3,Not Found,Not Found,5,Apartment,
9964441,Habitación con cama doble y baño,51203887,https://www.airbnb.com/s/Andorra?page=4,46,No Description Found,Merce,Not Found,42.55885730720811,1.532513887211015,No,Moderate,67,13,4,0,0,0,0,0,0,1,0,1,0,0,0,0,0,0,0,0,0,0,1,0,0,0,0,0,0,0,0,0,Not Found,Not Found,No Charge,Not Found,Not Found,Not Found,Not Found,Not Found,Not Found,Not Found,Not Found,Not Found,Not Found,2,1,Real Bed,1,Not Found,Not Found,1,Apartment,
9656057,"Bosquet, Ático Duplex con jardin.",4065772,https://www.airbnb.com/s/Andorra?page=4,230,No Description Found,Carles,Not Found,42.500230767244666,1.529779852701298,No,Strict,68,14,4,0,0,0,0,0,0,1,0,1,0,0,0,0,0,0,0,0,0,0,1,0,0,0,0,1,0,0,0,0,$58.00,$230.00,No Charge,Not Found,Not Found,Not Found,Not Found,Not Found,Not Found,Not Found,Not Found,Not Found,Not Found,7,3,Not Found,3,3:00 PM,12:00 PM (noon),7,Condominium,
8559576,Apartamento acogedor. 2 hab. Encamp,45051356,https://www.airbnb.com/s/Andorra?page=4,69,No Description Found,Irene,Not Found,42.53179936234658,1.5894542570748689,No,Moderate,69,15,4,0,0,0,0,0,0,1,0,1,0,0,0,0,0,0,0,0,0,0,1,0,0,0,0,1,0,0,0,0,$29.00,$230.00,$6 / night after 4 guests,Not Found,Not Found,Not Found,Not Found,Not Found,Not Found,Not Found,Not Found,Not Found,Not Found,6,1,Not Found,2,Not Found,Not Found,3,Apartment,
8833476,Arinsal Nuevos estudios pie pistas,43913455,https://www.airbnb.com/s/Andorra?page=4,78,No Description Found,Janine,Not Found,42.57476858027555,1.4820015646854923,No,Moderate,70,16,4,0,0,0,0,0,0,1,0,1,0,0,0,0,0,0,0,0,0,0,1,0,0,0,0,1,0,0,0,0,$22.00,$173.00,Not Found,Not Found,Not Found,Not Found,Not Found,Not Found,Not Found,Not Found,Not Found,Not Found,Not Found,2,1,Real Bed,0,3:00 PM,12:00 PM (noon),1,Apartment,
9801368,"Sandy IV, OFERTA 65 €/NOCHE!!!!!",14081684,https://www.airbnb.com/s/Andorra?page=4,75,No Description Found,Inocencia,Not Found,42.54121870306942,1.7346997942663351,No,Flexible,71,17,4,0,0,0,0,0,0,1,0,1,0,0,0,0,0,0,1,0,0,0,1,0,0,0,0,0,0,0,0,0,$43.00,$173.00,No Charge,Not Found,Not Found,Not Found,Not Found,Not Found,Not Found,Not Found,Not Found,Not Found,Not Found,4,1,Real Bed,1,Not Found,Not Found,1,Apartment,
9539876,"Hab Ski,montaña y relax",24972547,https://www.airbnb.com/s/Andorra?page=4,36,No Description Found,Maria Manuela,Not Found,42.53579703731495,1.5707042968671485,No,Strict,72,18,4,0,0,0,0,0,0,0,0,0,0,1,0,0,0,0,1,0,0,1,0,0,1,0,0,0,0,0,0,0,$35.00,Not Found,$29 / night after the first guest,Not Found,Not Found,Not Found,Not Found,Not Found,Not Found,Not Found,Not Found,Not Found,Not Found,2,0,Real Bed,1,3:00 PM,12:00 PM (noon),1,Other,
786330,Apt 2 habitaciones Encamp sol.WIFI,4145741,https://www.airbnb.com/s/Andorra?page=5,75,No Description Found,Marc,Not Found,42.53541159610376,1.5781018667590991,No,Strict,73,1,5,0,0,0,0,0,0,1,0,0,0,0,0,0,0,0,1,0,0,0,0,0,0,0,0,1,0,0,0,0,Not Found,Not Found,No Charge,Not Found,Not Found,Not Found,Not Found,Not Found,Not Found,Not Found,Not Found,Not Found,Not Found,6,1,Not Found,2,3:00 PM,12:00 PM (noon),2,Apartment,
9854186,Apartamento amplio en pleno centro2,4331683,https://www.airbnb.com/s/Andorra?page=5,29,No Description Found,Marcos Y Katia,Not Found,42.50594896890473,1.5314950012216804,No,Flexible,74,2,5,0,0,0,0,0,0,1,0,1,0,0,0,0,0,0,0,0,0,0,1,0,0,0,0,1,0,0,0,0,Not Found,Not Found,Not Found,Not Found,Not Found,Not Found,Not Found,Not Found,Not Found,Not Found,Not Found,Not Found,Not Found,1,1.5,Real Bed,1,Not Found,Not Found,1,Apartment,
10205117,"Apartamento en El Tarter, Andorra",52429494,https://www.airbnb.com/s/Andorra?page=5,167,No Description Found,Emilio,Not Found,42.58224538076095,1.6396309349050857,No,Flexible,75,3,5,0,0,0,0,0,0,1,0,1,0,0,0,0,0,0,1,0,0,0,1,0,0,0,0,0,0,0,0,0,Not Found,Not Found,No Charge,Not Found,Not Found,Not Found,Not Found,Not Found,Not Found,Not Found,Not Found,Not Found,Not Found,4,1,Real Bed,1,Not Found,Not Found,1,Apartment,
5773374,Charming ski resort apartment,28708328,https://www.airbnb.com/s/Andorra?page=5,72,No Description Found,José And Lizete,Not Found,42.53630303655009,1.5866078833232578,No,Moderate,76,4,5,0,0,0,0,0,0,1,0,1,0,0,0,0,0,0,1,0,0,0,1,0,0,0,0,0,0,0,0,0,$46.00,Not Found,$12 / night after 2 guests,Not Found,Not Found,Not Found,Not Found,Not Found,Not Found,Not Found,Not Found,Not Found,Not Found,4,1,Not Found,2,Not Found,Not Found,3,Apartment,
8772548,Appartement 1 chambre avec vue,27455893,https://www.airbnb.com/s/Andorra?page=5,80,No Description Found,Alexandra,Not Found,42.547719023181365,1.5238488100383543,No,Moderate,77,5,5,0,0,0,0,0,0,1,0,1,0,0,0,0,0,0,0,0,0,0,1,0,0,0,0,1,0,0,0,0,Not Found,Not Found,No Charge,Not Found,Not Found,Not Found,Not Found,Not Found,Not Found,Not Found,Not Found,Not Found,Not Found,3,1,Real Bed,1,3:00 PM,11:00 AM,1,Apartment,
4804595,Encantador apart pie de pistas ,3890320,https://www.airbnb.com/s/Andorra?page=5,98,No Description Found,Monica,Not Found,42.580102057795706,1.4812588834409104,No,Moderate,78,6,5,0,0,0,0,0,0,0,0,1,0,0,0,0,0,0,1,0,0,0,1,0,0,0,0,0,0,0,1,0,$12.00,Not Found,No Charge,Not Found,Not Found,Not Found,Not Found,Not Found,Not Found,Not Found,Not Found,Not Found,Not Found,3,1,Not Found,1,3:00 PM,12:00 PM (noon),2,Apartment,
6553357,4min telecabines et centre ville :),34274607,https://www.airbnb.com/s/Andorra?page=5,80,No Description Found,Camille,Not Found,42.56371907057722,1.5999012832137278,No,Moderate,79,7,5,0,0,0,0,0,0,1,0,0,0,0,0,0,0,0,1,0,0,0,1,0,0,0,0,0,0,0,1,0,$25.00,$288.00,Not Found,Not Found,Not Found,Not Found,Not Found,Not Found,Not Found,Not Found,Not Found,Not Found,Not Found,4,1,Not Found,1,12AM (midnight),12:00 AM (midnight),2,Apartment,
7089281,Apartamento luminoso en els Cortals,37029747,https://www.airbnb.com/s/Andorra?page=5,52,No Description Found,Anna I Maria,Not Found,42.533515602724826,1.5913020494175303,No,Moderate,80,8,5,0,0,0,0,0,0,1,0,1,0,0,0,0,0,0,1,0,0,0,1,0,0,0,0,0,0,0,0,0,$58.00,Not Found,No Charge,Not Found,Not Found,Not Found,Not Found,Not Found,Not Found,Not Found,Not Found,Not Found,Not Found,6,1,Not Found,2,Not Found,Not Found,4,Apartment,
7459335,apartamento sky vallnord ANDORRA,39067905,https://www.airbnb.com/s/Andorra?page=5,69,No Description Found,Albert,Not Found,42.54633387451293,1.5087711636206063,No,Flexible,81,9,5,0,0,0,0,0,0,1,0,1,0,0,0,0,0,0,1,0,0,0,1,0,0,0,0,0,0,0,0,0,Not Found,Not Found,No Charge,Not Found,Not Found,Not Found,Not Found,Not Found,Not Found,Not Found,Not Found,Not Found,Not Found,4,1,Real Bed,1,Not Found,Not Found,1,Apartment,
9676519,"Piso al lado del Funicamp, 6/8 pax",2316478,https://www.airbnb.com/s/Andorra?page=5,127,No Description Found,Donatella,Not Found,42.53772181991007,1.5870097062054387,No,Strict,82,10,5,0,0,0,0,0,0,1,0,1,0,0,0,0,0,0,0,0,0,0,1,0,0,0,0,0,0,0,0,0,$40.00,$173.00,No Charge,Not Found,Not Found,Not Found,Not Found,Not Found,Not Found,Not Found,Not Found,Not Found,Not Found,8,2,Not Found,3,4:00 PM,10:00 AM,7,Apartment,
1594693,Appartement au coeur d'Ordino,3611943,https://www.airbnb.com/s/Andorra?page=5,75,No Description Found,Joan M,Not Found,42.55659084356117,1.5356314980230112,No,Moderate,83,11,5,0,0,0,0,0,0,1,0,1,0,0,0,0,0,0,1,0,0,0,1,0,0,0,0,0,0,0,0,0,$17.00,$173.00,$17 / night after 2 guests,Not Found,Not Found,Not Found,Not Found,Not Found,Not Found,Not Found,Not Found,Not Found,Not Found,4,1,Real Bed,1,Not Found,Not Found,1,Apartment,
786325,"Ático muy soleado en Encamp , WIFI",4145741,https://www.airbnb.com/s/Andorra?page=5,75,No Description Found,Marc,Not Found,42.53511022070404,1.5779818755413033,No,Strict,84,12,5,0,0,0,0,0,0,1,0,0,0,0,0,0,0,0,0,0,0,0,1,0,0,0,0,1,0,0,0,0,Not Found,Not Found,No Charge,Not Found,Not Found,Not Found,Not Found,Not Found,Not Found,Not Found,Not Found,Not Found,Not Found,5,1,Not Found,1,3:00 PM,12:00 PM (noon),2,Apartment,
10697216,Habitación a pie de pistas.,32557995,https://www.airbnb.com/s/Andorra?page=5,35,No Description Found,Diego,Not Found,42.57878356466744,1.4794165514399036,No,Moderate,85,13,5,0,0,0,0,0,0,1,0,1,0,0,0,0,0,0,1,0,0,0,0,0,0,0,0,0,0,0,0,0,$12.00,Not Found,$23 / night after the first guest,Not Found,Not Found,Not Found,Not Found,Not Found,Not Found,Not Found,Not Found,Not Found,Not Found,2,1,Not Found,1,Not Found,Not Found,2,Apartment,
11332819,Soldeu alquiler para 1 o 2 personas,59304981,https://www.airbnb.com/s/Andorra?page=5,40,No Description Found,Martina,Not Found,42.57810101650471,1.6624643812484765,No,Flexible,86,14,5,0,0,0,0,0,0,1,0,1,0,0,0,0,0,0,0,0,0,0,1,0,0,0,0,0,0,0,0,0,Not Found,Not Found,No Charge,Not Found,Not Found,Not Found,Not Found,Not Found,Not Found,Not Found,Not Found,Not Found,Not Found,2,1,Not Found,1,Not Found,Not Found,2,House,
3118378,WIFI . 2 h . 6 pax  Andorra Encamp,4145741,https://www.airbnb.com/s/Andorra?page=5,75,No Description Found,Marc,Not Found,42.534749350824995,1.5770031791443075,No,Strict,87,15,5,0,0,0,0,0,0,1,0,0,0,0,0,0,0,0,0,0,0,0,1,0,0,0,0,1,0,0,0,0,Not Found,Not Found,No Charge,Not Found,Not Found,Not Found,Not Found,Not Found,Not Found,Not Found,Not Found,Not Found,Not Found,6,1,Not Found,2,3:00 PM,12:00 PM (noon),3,Apartment,
4741848,Centric apartment for 4 in Escaldes,4065772,https://www.airbnb.com/s/Andorra?page=5,115,No Description Found,Carles,Not Found,42.50886357570395,1.544995848415316,No,Strict,88,16,5,0,0,0,0,0,0,0,0,0,0,0,0,0,0,0,0,0,0,0,0,0,1,0,0,0,0,0,0,0,$58.00,$230.00,No Charge,Not Found,Not Found,Not Found,Not Found,Not Found,Not Found,Not Found,Not Found,Not Found,Not Found,4,1,Not Found,1,3:00 PM,12:00 PM (noon),2,Apartment,
7941609,precioso apartamento en incles,41883341,https://www.airbnb.com/s/Andorra?page=5,75,No Description Found,Oscar,Not Found,42.582561307995995,1.6622746384882063,No,Flexible,89,17,5,0,0,0,0,0,0,1,0,1,0,0,0,0,0,0,1,0,0,0,1,0,0,0,0,0,0,0,0,0,Not Found,Not Found,No Charge,Not Found,Not Found,Not Found,Not Found,Not Found,Not Found,Not Found,Not Found,Not Found,Not Found,4,1,Not Found,1,Not Found,4:00 PM,2,Apartment,
9424195,"Penthouse Andorra, Escaldes lt",42935899,https://www.airbnb.com/s/Andorra?page=5,21,No Description Found,Aliena,Not Found,42.51308663530763,1.5324240472541868,No,Flexible,90,18,5,0,0,0,0,0,0,1,0,0,0,0,0,0,0,0,1,0,0,1,1,0,0,0,0,0,0,0,0,0,$6.00,Not Found,Not Found,Not Found,Not Found,Not Found,Not Found,Not Found,Not Found,Not Found,Not Found,Not Found,Not Found,1,1,Real Bed,1,Not Found,Not Found,1,Apartment,
7099945,Apartamento a pie de pistas -INCLES,37029747,https://www.airbnb.com/s/Andorra?page=6,75,No Description Found,Anna I Maria,Not Found,42.57735037924455,1.6590868098913822,No,Moderate,91,1,6,0,0,0,0,0,0,1,0,1,0,0,0,0,0,0,1,0,0,0,1,0,0,0,0,0,0,0,0,0,$58.00,Not Found,No Charge,Not Found,Not Found,Not Found,Not Found,Not Found,Not Found,Not Found,Not Found,Not Found,Not Found,7,1,Not Found,2,Not Found,Not Found,4,Apartment,
11881074,Apartamento de montaña,22875897,https://www.airbnb.com/s/Andorra?page=6,115,No Description Found,Eugenia,Not Found,42.5828764575077,1.6645240966168633,No,Flexible,92,2,6,0,0,0,0,0,0,1,0,1,0,0,0,0,0,0,1,0,0,0,1,0,0,0,0,0,0,0,0,0,Not Found,Not Found,No Charge,Not Found,Not Found,Not Found,Not Found,Not Found,Not Found,Not Found,Not Found,Not Found,Not Found,4,1,Not Found,1,Not Found,Not Found,2,Condominium,
8166051,Atico a pie de pistas ,43100153,https://www.airbnb.com/s/Andorra?page=6,92,No Description Found,Robert,Not Found,42.57048801622775,1.485996814968123,No,Moderate,93,3,6,0,0,0,0,0,0,1,0,1,0,0,0,0,0,0,0,0,0,0,1,0,0,0,0,0,0,0,0,0,$58.00,$230.00,$23 / night after 4 guests,Not Found,Not Found,Not Found,Not Found,Not Found,Not Found,Not Found,Not Found,Not Found,Not Found,6,2,Not Found,3,Not Found,Not Found,3,Apartment,
10977196,Casa típica andorrana ,56763149,https://www.airbnb.com/s/Andorra?page=6,68,No Description Found,Isabel,Not Found,42.45433854803255,1.4937872305396065,No,Flexible,94,4,6,0,0,0,0,0,0,1,0,1,0,0,0,0,0,0,0,0,0,0,1,0,0,0,0,0,0,0,0,0,Not Found,Not Found,$29 / night after the first guest,Not Found,Not Found,Not Found,Not Found,Not Found,Not Found,Not Found,Not Found,Not Found,Not Found,3,1,Not Found,1,12AM (midnight),12:00 PM (noon),2,House,
9743967,Lake Placid 4 personas,14081684,https://www.airbnb.com/s/Andorra?page=6,115,No Description Found,Inocencia,Not Found,42.5075373917816,1.5227475537030923,No,Flexible,95,5,6,0,0,0,0,0,0,0,0,1,0,0,0,0,0,0,0,0,0,0,1,0,1,0,0,0,0,0,1,0,$43.00,$173.00,No Charge,Not Found,Not Found,Not Found,Not Found,Not Found,Not Found,Not Found,Not Found,Not Found,Not Found,4,1,Real Bed,0,Not Found,Not Found,1,Apartment,
4315986,Perfect flat in central La Massana,22406280,https://www.airbnb.com/s/Andorra?page=6,102,No Description Found,Rebecca,Not Found,42.54576384851058,1.5137569677764857,No,Strict,96,6,6,0,0,0,0,0,0,1,0,1,0,0,0,0,0,0,0,0,0,0,1,0,0,0,0,0,0,0,0,0,$69.00,Not Found,No Charge,Not Found,Not Found,Not Found,Not Found,Not Found,Not Found,Not Found,Not Found,Not Found,Not Found,4,2,Not Found,2,Not Found,Not Found,5,Apartment,
518114,SUPERB LOCATION COZY APT IN CANILLO,2550836,https://www.airbnb.com/s/Andorra?page=6,98,No Description Found,Mayte,Not Found,42.56420728017279,1.5998624438671858,No,Strict,97,7,6,0,0,0,0,0,0,1,0,1,0,0,0,0,0,0,1,0,0,0,1,0,0,0,0,0,0,0,0,0,$29.00,$230.00,Not Found,Not Found,Not Found,Not Found,Not Found,Not Found,Not Found,Not Found,Not Found,Not Found,Not Found,4,2,Not Found,2,3:00 PM,12:00 PM (noon),2,Apartment,
9315198,"Andorra, El Tarter, facing slopes.",34877124,https://www.airbnb.com/s/Andorra?page=6,184,No Description Found,Elizabeth,Not Found,42.58064682431927,1.651105380402009,No,Moderate,98,8,6,0,0,0,0,0,0,1,0,1,0,0,0,0,0,0,0,0,0,0,1,0,0,0,0,1,0,0,0,0,$23.00,$115.00,$12 / night after the first guest,Not Found,Not Found,Not Found,Not Found,Not Found,Not Found,Not Found,Not Found,Not Found,Not Found,8,1,Not Found,2,2:00 PM,10:00 AM,6,Apartment,
9989160,Luxury new apartment for 6 @ Soldeu,51323537,https://www.airbnb.com/s/Andorra?page=6,115,No Description Found,Maria Jose,Not Found,42.57732094988647,1.6629403408363501,No,Moderate,99,9,6,0,0,0,0,0,0,1,0,1,0,0,0,0,0,0,1,0,0,0,1,0,0,0,0,0,0,0,0,0,Not Found,$288.00,No Charge,Not Found,Not Found,Not Found,Not Found,Not Found,Not Found,Not Found,Not Found,Not Found,Not Found,6,1,Not Found,2,2:00 PM,12:00 PM (noon),6,Apartment,
10451014,Apartamento a 100 m pista de esquí,17051590,https://www.airbnb.com/s/Andorra?page=6,58,No Description Found,Cristina,Not Found,42.581177680084004,1.6510656049768577,No,Strict,100,10,6,0,0,0,0,0,0,1,0,1,0,0,0,0,0,0,1,0,0,0,1,0,0,0,0,0,0,0,0,0,$40.00,Not Found,No Charge,Not Found,Not Found,Not Found,Not Found,Not Found,Not Found,Not Found,Not Found,Not Found,Not Found,4,1,Not Found,0,1:00 PM,10:00 AM,2,Apartment,
11602140,Casa abuhardillada en urbanización,25888613,https://www.airbnb.com/s/Andorra?page=6,230,No Description Found,Susanna,Not Found,42.54575820535573,1.5140093098202014,No,Moderate,101,11,6,0,0,0,0,0,0,1,0,1,0,0,0,0,0,0,0,0,0,0,1,0,0,0,0,1,0,0,0,0,$115.00,Not Found,No Charge,Not Found,Not Found,Not Found,Not Found,Not Found,Not Found,Not Found,Not Found,Not Found,Not Found,8,2.5,Not Found,4,Not Found,12:00 PM (noon),6,House,
11975164,Edifici Santa Maria de Coll  Calde,46788679,https://www.airbnb.com/s/Andorra?page=6,46,No Description Found,Guy Pierre,Not Found,42.51256357219336,1.5494934885638563,No,Flexible,102,12,6,0,0,0,0,0,0,1,0,1,0,0,0,0,0,0,0,0,0,0,1,0,0,0,0,0,0,0,0,0,Not Found,Not Found,No Charge,Not Found,Not Found,Not Found,Not Found,Not Found,Not Found,Not Found,Not Found,Not Found,Not Found,2,1,Real Bed,1,Not Found,Not Found,1,Apartment,
4748215,Ultimate Snowboard Skiing Holiday,7646922,https://www.airbnb.com/s/Andorra?page=6,58,No Description Found,Jessica,Not Found,42.578562311285836,1.6615720621749448,No,Moderate,103,13,6,0,0,0,0,0,0,1,0,1,0,0,0,0,0,0,1,0,0,0,1,0,0,0,0,0,0,0,0,0,$58.00,Not Found,No Charge,Not Found,Not Found,Not Found,Not Found,Not Found,Not Found,Not Found,Not Found,Not Found,Not Found,4,1,Not Found,2,2:00 PM,10:00 AM,3,Apartment,
3066452,Charming Chalet in Paradise!,15605607,https://www.airbnb.com/s/Andorra?page=6,132,No Description Found,Marie,Not Found,42.55542999996815,1.534903974988461,No,Flexible,104,14,6,0,0,0,0,0,0,1,0,1,0,0,0,0,0,0,1,0,0,0,1,0,0,0,0,0,0,0,0,0,$81.00,Not Found,No Charge,Not Found,Not Found,Not Found,Not Found,Not Found,Not Found,Not Found,Not Found,Not Found,Not Found,6,2,Not Found,3,Not Found,Not Found,6,Apartment,
10843347,Fab one bed apt in SOLDEU village,54341789,https://www.airbnb.com/s/Andorra?page=6,73,No Description Found,Ann,Not Found,42.57855836115099,1.667200423961401,No,Flexible,105,15,6,0,0,0,0,0,0,1,0,1,0,0,0,0,0,0,0,0,0,0,1,0,0,0,0,0,0,0,0,0,$73.00,$291.00,No Charge,Not Found,Not Found,Not Found,Not Found,Not Found,Not Found,Not Found,Not Found,Not Found,Not Found,2,1,Real Bed,1,Not Found,Not Found,1,Apartment,
5790907,"Soldeu, Andorra, near the slopes",30043963,https://www.airbnb.com/s/Andorra?page=6,57,No Description Found,Boris,Not Found,42.58163301177778,1.6609903097110876,No,Moderate,106,16,6,0,0,0,0,0,0,1,0,1,0,0,0,0,0,0,0,0,0,0,1,0,0,0,0,0,0,0,0,0,$40.00,$173.00,$10 / night after 2 guests,Not Found,Not Found,Not Found,Not Found,Not Found,Not Found,Not Found,Not Found,Not Found,Not Found,6,1,Not Found,2,4:00 PM,12:00 PM (noon),6,Apartment,
4722672,Apt con impresionantes vistas.,24393945,https://www.airbnb.com/s/Andorra?page=6,167,No Description Found,Carlos,Not Found,42.50787696486494,1.5526703806599387,No,Flexible,107,17,6,0,0,0,0,0,0,1,0,0,0,0,0,0,0,0,1,0,0,0,1,0,0,0,0,0,0,0,0,0,Not Found,Not Found,No Charge,Not Found,Not Found,Not Found,Not Found,Not Found,Not Found,Not Found,Not Found,Not Found,Not Found,8,2,Not Found,1,Not Found,Not Found,8,Apartment,
10915073,"Ed. Carles, La Massana para 8 pers.",4065772,https://www.airbnb.com/s/Andorra?page=6,173,No Description Found,Carles,Not Found,42.5419736587403,1.517448181277885,No,Strict,108,18,6,0,0,0,0,0,0,1,0,0,0,0,0,0,0,0,1,0,0,0,1,0,0,0,0,0,0,0,1,0,$58.00,Not Found,No Charge,Not Found,Not Found,Not Found,Not Found,Not Found,Not Found,Not Found,Not Found,Not Found,Not Found,8,1,Not Found,3,Not Found,Not Found,6,Apartment,
9536708,APARTAMENTO NEVADA  4personas!!!,14081684,https://www.airbnb.com/s/Andorra?page=7,115,No Description Found,Inocencia,Not Found,42.543097837566826,1.7332973757204055,No,Flexible,109,1,7,0,0,0,0,0,0,1,0,1,0,0,0,0,0,0,1,0,0,0,1,0,0,0,0,0,0,0,0,0,$43.00,$173.00,No Charge,Not Found,Not Found,Not Found,Not Found,Not Found,Not Found,Not Found,Not Found,Not Found,Not Found,4,2,Real Bed,1,Not Found,Not Found,1,Apartment,
11633047,JANET FAMILY,15674972,https://www.airbnb.com/s/Andorra?page=7,77,No Description Found,Alexis,Not Found,42.562051140103264,1.4979431104929313,No,Flexible,110,2,7,0,0,0,0,0,0,1,0,1,0,0,0,0,0,0,0,0,0,0,1,0,0,0,0,1,0,0,0,0,$40.00,Not Found,$29 / night after 3 guests,Not Found,Not Found,Not Found,Not Found,Not Found,Not Found,Not Found,Not Found,Not Found,Not Found,5,2.5,Not Found,2,Not Found,Not Found,4,Apartment,
9742348,Apartamento Nevada. 6personas!!!,14081684,https://www.airbnb.com/s/Andorra?page=7,146,No Description Found,Inocencia,Not Found,42.54200094329538,1.7308639438132127,No,Flexible,111,3,7,0,0,0,0,0,0,1,0,1,0,0,0,0,0,0,0,0,0,0,1,0,0,0,0,0,0,0,1,0,$58.00,Not Found,No Charge,Not Found,Not Found,Not Found,Not Found,Not Found,Not Found,Not Found,Not Found,Not Found,Not Found,6,1,Real Bed,1,Not Found,Not Found,1,Apartment,
11881392,PRIVATE BEDROOM +  ITS OWN BATHROOM,63354346,https://www.airbnb.com/s/Andorra?page=7,46,No Description Found,Isabelle,Not Found,42.51622335365553,1.531697068364557,No,Moderate,112,4,7,0,0,0,0,0,0,1,0,1,0,0,0,0,0,0,0,0,0,0,1,0,0,0,0,0,0,0,0,0,$12.00,$207.00,Not Found,Not Found,Not Found,Not Found,Not Found,Not Found,Not Found,Not Found,Not Found,Not Found,Not Found,2,1,Real Bed,1,2:00 PM,8:00 PM,1,Apartment,
10027395,COZY Apartment for skiing,47614396,https://www.airbnb.com/s/Andorra?page=7,109,No Description Found,Pascale & Jean-Christophe,Not Found,42.56814504491671,1.602768194721541,No,Strict,113,5,7,0,0,0,0,0,0,1,0,1,0,0,0,0,0,0,0,0,0,0,1,0,0,0,0,0,0,0,0,0,$58.00,$575.00,$17 / night after 4 guests,Not Found,Not Found,Not Found,Not Found,Not Found,Not Found,Not Found,Not Found,Not Found,Not Found,6,2,Not Found,2,4:00 PM,12:00 PM (noon),3,Apartment,
848285,Apartment canillo center andorra ,4371643,https://www.airbnb.com/s/Andorra?page=7,40,No Description Found,Gregory,Not Found,42.568072777668334,1.602129745870686,No,Strict,114,6,7,0,0,0,0,0,0,1,0,0,0,0,0,0,0,0,1,0,0,0,1,0,0,0,0,0,0,0,0,0,Not Found,$460.00,No Charge,Not Found,Not Found,Not Found,Not Found,Not Found,Not Found,Not Found,Not Found,Not Found,Not Found,4,1,Real Bed,1,2:00 PM,11:00 AM,1,Apartment,
8793904,relaxaciò i descans a la teva má,46065908,https://www.airbnb.com/s/Andorra?page=7,92,No Description Found,Paqui,Not Found,42.56999499759859,1.5950486359454066,No,Flexible,115,7,7,0,0,0,0,0,0,0,0,1,0,0,0,0,0,0,1,0,0,0,0,1,0,0,0,1,0,0,0,0,Not Found,Not Found,No Charge,Not Found,Not Found,Not Found,Not Found,Not Found,Not Found,Not Found,Not Found,Not Found,Not Found,2,1,Real Bed,1,Not Found,Not Found,1,House,
8454270,"Pleta Aldosa, Rústica para 6 pers.",4065772,https://www.airbnb.com/s/Andorra?page=7,173,No Description Found,Carles,Not Found,42.54928551918463,1.5240297934518263,No,Strict,116,8,7,0,0,0,0,0,0,1,0,1,0,0,0,0,0,0,0,0,0,0,1,0,0,0,0,0,0,0,0,0,$58.00,$230.00,No Charge,Not Found,Not Found,Not Found,Not Found,Not Found,Not Found,Not Found,Not Found,Not Found,Not Found,6,2,Not Found,3,3:00 PM,12:00 PM (noon),5,Apartment,
9743999,Apart. Vacaciones Esquí El Tarter,43913455,https://www.airbnb.com/s/Andorra?page=7,87,No Description Found,Janine,Not Found,42.58018974753369,1.6415909708479537,No,Moderate,117,9,7,0,0,0,0,0,0,1,0,1,0,0,0,0,0,0,0,0,0,0,1,0,0,0,0,1,0,0,0,0,$23.00,$173.00,No Charge,Not Found,Not Found,Not Found,Not Found,Not Found,Not Found,Not Found,Not Found,Not Found,Not Found,4,1,Not Found,1,3:00 PM,12:00 PM (noon),4,Apartment,
10276452,Habitacion Encamp / Room Encamp,7243826,https://www.airbnb.com/s/Andorra?page=7,69,No Description Found,Maria,Not Found,42.53413070358022,1.585082281422857,No,Flexible,118,10,7,0,0,0,0,0,0,1,0,1,0,0,0,0,0,0,1,0,0,0,1,0,0,0,0,0,0,0,0,0,Not Found,Not Found,No Charge,Not Found,Not Found,Not Found,Not Found,Not Found,Not Found,Not Found,Not Found,Not Found,Not Found,2,1,Not Found,1,Not Found,Not Found,2,Apartment,
4273072,"A pie del Funicamp, practico x ski",4349308,https://www.airbnb.com/s/Andorra?page=7,92,No Description Found,May,Not Found,42.534392838971065,1.58782282734812,No,Strict,119,11,7,0,0,0,0,0,0,1,0,1,0,0,0,0,0,0,1,0,0,0,1,0,0,0,0,0,0,0,0,0,$29.00,Not Found,Not Found,Not Found,Not Found,Not Found,Not Found,Not Found,Not Found,Not Found,Not Found,Not Found,Not Found,4,1.5,Not Found,2,3:00 PM,12:00 PM (noon),2,Apartment,
9801795,Estudio compartido frente a Peretol,48016984,https://www.airbnb.com/s/Andorra?page=7,29,No Description Found,Sofía,Not Found,42.56116745477656,1.684336039035421,No,Flexible,120,12,7,0,0,0,0,0,0,1,0,1,0,0,0,0,0,0,1,0,0,0,1,0,0,0,0,0,0,0,0,0,$12.00,$100.00,$55 / night after the first guest,$606 /month,$171 /week,Not Found,Not Found,Not Found,Not Found,Not Found,Not Found,Not Found,Not Found,2,1,Not Found,1,Not Found,Not Found,3,Apartment,
9988251,Apartamento 6 personas en El Tarter,43913455,https://www.airbnb.com/s/Andorra?page=7,145,No Description Found,Janine,Not Found,42.57894781099561,1.6431955323182892,No,Moderate,121,13,7,0,0,0,0,0,0,1,0,1,0,0,0,0,0,0,0,0,0,0,1,0,0,0,0,1,0,0,0,0,$23.00,$173.00,No Charge,Not Found,Not Found,Not Found,Not Found,Not Found,Not Found,Not Found,Not Found,Not Found,Not Found,6,2,Not Found,2,3:00 PM,12:00 PM (noon),4,Apartment,
8747311,Apart. Andorra (Encamp/Grandvalira),30892655,https://www.airbnb.com/s/Andorra?page=7,98,No Description Found,Veronica,Not Found,42.53397341374051,1.580358387941296,No,Strict,122,14,7,0,0,0,0,0,0,1,0,1,0,0,0,0,0,0,0,0,0,0,1,0,0,0,0,1,0,0,0,0,Not Found,$460.00,$23 / night after the first guest,Not Found,Not Found,Not Found,Not Found,Not Found,Not Found,Not Found,Not Found,Not Found,Not Found,6,2,Not Found,2,1:00 PM,12:00 PM (noon),3,Apartment,
9545079,Excelente apto en Soldeu - Andorra,49431373,https://www.airbnb.com/s/Andorra?page=7,87,No Description Found,Jordi,Not Found,42.565300566144636,1.679554091545533,No,Moderate,123,15,7,0,0,0,0,0,0,1,0,1,0,0,0,0,0,0,1,0,0,0,1,0,0,0,0,0,0,0,0,0,Not Found,Not Found,No Charge,Not Found,$518 /week,Not Found,Not Found,Not Found,Not Found,Not Found,Not Found,Not Found,Not Found,4,1,Not Found,1,Not Found,Not Found,2,Apartment,
11634268,JANET MONTAGNE,15674972,https://www.airbnb.com/s/Andorra?page=7,92,No Description Found,Alexis,Not Found,42.5609114935973,1.4959790306236214,No,Flexible,124,16,7,0,0,0,0,0,0,1,0,1,0,0,0,0,0,0,0,0,0,0,1,0,0,0,0,1,0,0,0,0,$46.00,Not Found,$35 / night after 4 guests,Not Found,Not Found,Not Found,Not Found,Not Found,Not Found,Not Found,Not Found,Not Found,Not Found,6,2.5,Not Found,2,Not Found,Not Found,4,Apartment,
9440047,Apartamento en Vall d'Incles,22875897,https://www.airbnb.com/s/Andorra?page=7,173,No Description Found,Eugenia,Not Found,42.58319909343379,1.6654318045258907,No,Flexible,125,17,7,0,0,0,0,0,0,1,0,1,0,0,0,0,0,0,1,0,0,0,1,0,0,0,0,0,0,0,0,0,$58.00,$288.00,No Charge,Not Found,Not Found,Not Found,Not Found,Not Found,Not Found,Not Found,Not Found,Not Found,Not Found,6,1,Not Found,3,Not Found,Not Found,6,Apartment,
740713,Apart. cerca de Soldeu / ElTarter,3875849,https://www.airbnb.com/s/Andorra?page=7,69,No Description Found,Raúl,Not Found,42.58218020780486,1.6609923102201551,No,Moderate,126,18,7,0,0,0,0,0,0,1,0,0,0,0,0,0,0,0,1,0,0,0,1,0,0,0,0,0,0,0,1,0,Not Found,$230.00,No Charge,Not Found,Not Found,Not Found,Not Found,Not Found,Not Found,Not Found,Not Found,Not Found,Not Found,4,1,Real Bed,1,Not Found,Not Found,1,Apartment,
1742093,Lovely attic in La Massana,4065772,https://www.airbnb.com/s/Andorra?page=8,115,No Description Found,Carles,Not Found,42.54664421286516,1.5157523958595867,No,Strict,127,1,8,0,0,0,0,0,0,1,0,0,0,0,0,0,0,0,1,0,0,0,1,0,0,0,0,0,0,0,0,0,$58.00,$230.00,No Charge,Not Found,Not Found,Not Found,Not Found,Not Found,Not Found,Not Found,Not Found,Not Found,Not Found,4,1,Real Bed,1,3:00 PM,12:00 PM (noon),1,Apartment,
10761503,RENT 2 LOVELY APARTMENTS! PACK 4/8,52224801,https://www.airbnb.com/s/Andorra?page=8,196,No Description Found,Sandy,Not Found,42.54021035299682,1.7339836871353838,No,Moderate,128,2,8,0,0,0,0,0,0,1,0,1,0,0,0,0,0,0,0,0,0,0,1,0,0,0,0,0,0,0,0,0,$35.00,$230.00,No Charge,Not Found,Not Found,Not Found,Not Found,Not Found,Not Found,Not Found,Not Found,Not Found,Not Found,8,2,Not Found,1,3:00 PM,11:00 AM,6,Apartment,
1824582,Design and views. Walking to slopes,4349308,https://www.airbnb.com/s/Andorra?page=8,80,No Description Found,May,Not Found,42.57927228453094,1.6457905396207835,No,Flexible,129,3,8,0,0,0,0,0,0,1,0,1,0,0,0,0,0,0,1,0,0,0,1,0,0,0,0,0,0,0,0,0,$29.00,Not Found,$17 / night after 2 guests,Not Found,Not Found,Not Found,Not Found,Not Found,Not Found,Not Found,Not Found,Not Found,Not Found,4,1,Not Found,1,4:00 PM,12:00 PM (noon),3,Apartment,
7978162,Accomodation 2/3 pers city center,41688078,https://www.airbnb.com/s/Andorra?page=8,60,No Description Found,Sara,Not Found,42.51094289856648,1.535173653334305,No,Flexible,130,4,8,0,0,0,0,0,0,0,0,1,0,0,0,0,0,0,0,0,0,0,1,0,0,0,0,1,0,0,0,0,Not Found,Not Found,Not Found,Not Found,Not Found,Not Found,Not Found,Not Found,Not Found,Not Found,Not Found,Not Found,Not Found,2,0.5,Real Bed,1,Not Found,Not Found,1,Apartment,
2114799,Glac Soldeu 3000 Estudio 2,10585060,https://www.airbnb.com/s/Andorra?page=8,92,No Description Found,Apartamentos,Not Found,42.56056430533904,1.6847907077405309,No,Strict,131,5,8,0,0,0,0,0,0,1,0,0,0,1,0,0,0,0,0,0,0,0,1,0,0,0,0,0,0,0,0,0,Not Found,$173.00,No Charge,Not Found,Not Found,Not Found,Not Found,Not Found,Not Found,Not Found,Not Found,Not Found,Not Found,4,1,Real Bed,0,5:00 PM,10:00 AM,1,Apartment,
8951808,Santa Maria,46788679,https://www.airbnb.com/s/Andorra?page=8,58,No Description Found,Guy Pierre,Not Found,42.50094716573828,1.7219781436217754,No,Flexible,132,6,8,0,0,0,0,0,0,1,0,1,0,0,0,0,0,0,0,0,0,0,1,0,0,0,0,0,0,0,0,0,Not Found,Not Found,No Charge,Not Found,Not Found,Not Found,Not Found,Not Found,Not Found,Not Found,Not Found,Not Found,Not Found,6,2,Not Found,3,Not Found,Not Found,3,Apartment,
5460800,Ski Soldeu: Great Apartment for 5,13102408,https://www.airbnb.com/s/Andorra?page=8,49,No Description Found,Victoria,Not Found,42.57752128256663,1.6639709467365305,No,Strict,133,7,8,0,0,0,0,0,0,1,0,1,0,0,0,0,0,0,1,0,0,0,1,0,0,0,0,0,0,0,0,0,$58.00,$146.00,$15 / night after 3 guests,Not Found,Not Found,Not Found,Not Found,Not Found,Not Found,Not Found,Not Found,Not Found,Not Found,5,1,Not Found,1,3:00 PM,11:00 AM,5,Apartment,
8496038,Apartaments familiars de muntanya,44740721,https://www.airbnb.com/s/Andorra?page=8,66,No Description Found,La Neu,Not Found,42.59714343496937,1.5276422673225682,No,Flexible,134,8,8,0,0,0,0,0,0,1,0,0,0,0,0,0,0,0,1,0,0,0,1,0,0,0,0,1,0,0,0,0,Not Found,Not Found,No Charge,Not Found,Not Found,Not Found,Not Found,Not Found,Not Found,Not Found,Not Found,Not Found,Not Found,2,1,Not Found,1,Not Found,Not Found,2,Apartment,
9527261,Koselig og sentral i El Tarter,15077707,https://www.airbnb.com/s/Andorra?page=8,69,No Description Found,Vicente,Not Found,42.580347267338304,1.6536381563070608,No,Strict,135,9,8,0,0,0,0,0,0,1,0,0,0,0,0,0,0,0,1,0,0,0,1,0,0,0,0,1,0,0,0,0,$58.00,$276.00,Not Found,Not Found,Not Found,Not Found,Not Found,Not Found,Not Found,Not Found,Not Found,Not Found,Not Found,5,1,Not Found,2,4:00 PM,12:00 PM (noon),5,Apartment,
2117251,Vaquers 3000 Estudio 2,10585060,https://www.airbnb.com/s/Andorra?page=8,75,No Description Found,Apartamentos,Not Found,42.54120417401379,1.7325148470321687,No,Strict,136,10,8,0,0,0,0,0,0,1,0,0,0,0,0,0,0,0,1,0,0,0,1,0,1,0,0,0,0,0,0,0,Not Found,$173.00,No Charge,Not Found,Not Found,Not Found,Not Found,Not Found,Not Found,Not Found,Not Found,Not Found,Not Found,2,1,Pull-out Sofa,0,5:00 PM,10:00 AM,1,Apartment,
2194986,Studio in the heart of La Massana,10627976,https://www.airbnb.com/s/Andorra?page=8,79,No Description Found,R.M,Not Found,42.54498826063835,1.514767726487826,No,Strict,137,11,8,0,0,0,0,0,0,1,0,1,0,0,0,0,0,0,0,0,0,0,1,0,0,0,0,0,0,0,0,0,$35.00,$173.00,No Charge,Not Found,Not Found,Not Found,Not Found,Not Found,Not Found,Not Found,Not Found,Not Found,Not Found,3,1,Real Bed,0,4:00 PM,11:00 AM,1,Apartment,
9782088,APARTAMENTO PRINCESA L22 6p. PAS CA,14081684,https://www.airbnb.com/s/Andorra?page=8,158,No Description Found,Inocencia,Not Found,42.54227862444733,1.7319808966151238,No,Flexible,138,12,8,0,0,0,0,0,0,1,0,1,0,0,0,0,0,0,1,0,0,0,1,0,0,0,0,0,0,0,0,0,$58.00,$173.00,No Charge,Not Found,Not Found,Not Found,Not Found,Not Found,Not Found,Not Found,Not Found,Not Found,Not Found,6,2,Not Found,2,Not Found,Not Found,3,Apartment,
342942,Gorgeous studio in Pas de la Casa,1716612,https://www.airbnb.com/s/Andorra?page=8,46,No Description Found,Javier,Not Found,42.540407835659664,1.7340044800863244,No,Strict,139,13,8,0,0,0,0,0,0,1,0,0,0,0,0,0,0,0,1,0,0,0,1,0,0,0,0,0,0,0,1,0,$40.00,$105.00,No Charge,Not Found,Not Found,Not Found,Not Found,Not Found,Not Found,Not Found,Not Found,Not Found,Not Found,4,1,Not Found,1,5:00 PM,12:00 PM (noon),3,Apartment,
11152925,Soldeu ideal en invierno y verano.,4349308,https://www.airbnb.com/s/Andorra?page=8,92,No Description Found,May,Not Found,42.577522318827754,1.6607876415857032,No,Flexible,140,14,8,0,0,0,0,0,0,1,0,1,0,0,0,0,0,0,1,0,0,0,1,0,0,0,0,0,0,0,0,0,$29.00,Not Found,$17 / night after 4 guests,Not Found,Not Found,Not Found,Not Found,Not Found,Not Found,Not Found,Not Found,Not Found,Not Found,5,1,Not Found,2,Not Found,Not Found,4,Apartment,
11527610,INCLES - Edifici Novell 2,60787372,https://www.airbnb.com/s/Andorra?page=8,58,No Description Found,Francis,Not Found,42.58324354089228,1.6635754349661998,No,Strict,141,15,8,0,0,0,0,0,0,1,0,0,0,0,0,0,0,0,1,0,0,0,1,0,0,0,0,0,0,0,1,0,Not Found,$575.00,No Charge,Not Found,Not Found,Not Found,Not Found,Not Found,Not Found,Not Found,Not Found,Not Found,Not Found,4,1,Not Found,1,3:00 PM,12:00 PM (noon),2,Apartment,
9891684,APARTAMENTO PRINCESA L22 6p.,14081684,https://www.airbnb.com/s/Andorra?page=8,159,No Description Found,Inocencia,Not Found,42.539684452897774,1.7294211032783002,No,Moderate,142,16,8,0,0,0,0,0,0,1,0,1,0,0,0,0,0,0,1,0,0,0,0,1,0,0,0,0,0,0,0,0,$58.00,Not Found,No Charge,Not Found,Not Found,Not Found,Not Found,Not Found,Not Found,Not Found,Not Found,Not Found,Not Found,6,2,Not Found,2,4:00 PM,10:00 AM,3,Apartment,
9764728,Entire 3 bedroom apartment (7ppl),488817,https://www.airbnb.com/s/Andorra?page=8,218,No Description Found,Poppy,Not Found,42.577315284834796,1.6637189469643878,No,Strict,143,17,8,0,0,0,0,0,0,0,0,1,0,0,0,0,0,0,0,0,0,0,1,0,0,0,0,1,0,0,0,0,Not Found,Not Found,No Charge,Not Found,Not Found,Not Found,Not Found,Not Found,Not Found,Not Found,Not Found,Not Found,Not Found,7,2,Not Found,3,4:00 AM,11:00 AM,5,Apartment,
9897445,"Edf. TUCAMP ""Funicamp Esqui"" 1a",3886102,https://www.airbnb.com/s/Andorra?page=8,114,No Description Found,Sara,Not Found,42.53464845948354,1.5888344045665206,No,Strict,144,18,8,0,0,0,0,0,0,1,0,1,0,0,0,0,0,0,0,0,0,0,1,0,0,0,0,1,0,0,0,0,Not Found,$115.00,$6 / night after 4 guests,Not Found,Not Found,Not Found,Not Found,Not Found,Not Found,Not Found,Not Found,Not Found,Not Found,6,1,Not Found,1,1:00 AM,1:00 AM,5,Apartment,
9746894,buenas vistas a 300 mts de pistas,50281236,https://www.airbnb.com/s/Andorra?page=9,138,No Description Found,Cristian,Not Found,42.58033242846283,1.645232980797368,No,Strict,145,1,9,0,0,0,0,0,0,1,0,1,0,0,0,0,0,0,1,0,0,0,1,0,0,0,0,0,0,0,0,0,$46.00,$115.00,No Charge,Not Found,Not Found,Not Found,Not Found,Not Found,Not Found,Not Found,Not Found,Not Found,Not Found,6,1,Not Found,3,7:00 PM,12:00 PM (noon),4,Apartment,
5180183,Els Teiers de Llorts-Spa B 1º4ª,12631933,https://www.airbnb.com/s/Andorra?page=9,138,No Description Found,Rentseason,Not Found,42.6035740479062,1.5351579003439497,No,Flexible,146,2,9,0,0,0,0,0,0,0,0,1,0,0,0,0,0,0,0,0,0,0,1,0,0,0,0,1,0,0,0,0,$78.00,Not Found,No Charge,Not Found,Not Found,Not Found,Not Found,Not Found,Not Found,Not Found,Not Found,Not Found,Not Found,6,2,Not Found,2,4:00 PM,12:00 PM (noon),3,Apartment,
4436401,Residencial Princesa Park,12631933,https://www.airbnb.com/s/Andorra?page=9,173,No Description Found,Rentseason,Not Found,42.57320062508493,1.4815635340510027,No,Flexible,147,3,9,0,0,0,0,0,0,0,0,0,0,0,0,0,0,0,1,0,0,1,1,1,0,0,0,0,0,0,0,0,$78.00,Not Found,No Charge,Not Found,Not Found,Not Found,Not Found,Not Found,Not Found,Not Found,Not Found,Not Found,Not Found,6,2,Not Found,2,4:00 PM,Not Found,3,Apartment,
3422348,Chalet in Grandvalira,7889786,https://www.airbnb.com/s/Andorra?page=9,115,No Description Found,Olga,Not Found,42.58144736361614,1.6503370744503996,No,Flexible,148,4,9,0,0,0,0,0,0,1,0,1,0,0,0,0,0,0,0,0,0,0,1,0,0,0,0,0,0,0,0,0,Not Found,Not Found,No Charge,Not Found,Not Found,Not Found,Not Found,Not Found,Not Found,Not Found,Not Found,Not Found,Not Found,7,2,Not Found,3,4:00 PM,11:00 AM,5,Apartment,
4669258,Ideal mountain retreat,22558231,https://www.airbnb.com/s/Andorra?page=9,131,No Description Found,Sarah,Not Found,42.570513494596035,1.492199983583916,No,Moderate,149,5,9,0,0,0,0,0,0,1,0,1,0,0,0,0,0,0,0,0,0,0,1,0,0,0,0,1,0,0,0,0,$58.00,$437.00,No Charge,Not Found,Not Found,Not Found,Not Found,Not Found,Not Found,Not Found,Not Found,Not Found,Not Found,4,2,Not Found,2,4:00 PM,11:00 AM,2,Apartment,
4294591,Andorran rustic house in Llorts,4065772,https://www.airbnb.com/s/Andorra?page=9,230,No Description Found,Carles,Not Found,42.596340251043046,1.5291735537675206,No,Strict,150,6,9,0,0,0,0,0,0,1,0,1,0,0,0,0,0,0,0,0,0,0,1,0,0,0,0,0,0,0,0,0,$58.00,$230.00,No Charge,Not Found,Not Found,Not Found,Not Found,Not Found,Not Found,Not Found,Not Found,Not Found,Not Found,10,2,Not Found,5,3:00 PM,12:00 PM (noon),7,House,
9061168,APTO. FRENTE A PISTAS GRANDVALIRA,14936366,https://www.airbnb.com/s/Andorra?page=9,58,No Description Found,Cinthia,Not Found,42.58204855439074,1.6385249016013659,No,Moderate,151,7,9,0,0,0,0,0,0,1,0,1,0,0,0,0,0,0,0,0,0,0,1,0,0,0,0,0,0,0,0,0,Not Found,$173.00,No Charge,Not Found,Not Found,Not Found,Not Found,Not Found,Not Found,Not Found,Not Found,Not Found,Not Found,4,2,Not Found,2,4:00 PM,12:00 PM (noon),3,Apartment,
9364431,Chalet Hotel Peretol,17413053,https://www.airbnb.com/s/Andorra?page=9,160,No Description Found,Laura,Not Found,42.583670541082775,1.662444226106715,No,Flexible,152,8,9,0,0,0,0,0,0,1,0,1,0,0,0,0,0,0,1,0,0,0,0,1,0,0,0,0,0,0,0,0,Not Found,Not Found,$80 / night after 2 guests,Not Found,Not Found,Not Found,Not Found,Not Found,Not Found,Not Found,Not Found,Not Found,Not Found,16+,8+,Not Found,10,Not Found,Not Found,16,Chalet,
9784325,Piso Ideal 4 pers. 2B,40675479,https://www.airbnb.com/s/Andorra?page=9,80,No Description Found,Chantal,Not Found,42.53533968880362,1.5885748720454744,No,Strict,153,9,9,0,0,0,0,0,0,1,0,0,0,0,0,0,0,0,1,0,0,0,1,0,0,0,0,0,0,0,1,0,$23.00,$288.00,No Charge,Not Found,Not Found,Not Found,Not Found,Not Found,Not Found,Not Found,Not Found,Not Found,Not Found,4,1,Not Found,1,3:00 PM,10:00 AM,2,Apartment,
11757953,Habitación privada doble twin,62569914,https://www.airbnb.com/s/Andorra?page=9,40,No Description Found,Majo,Not Found,42.58273159197029,1.6620160306509413,No,Flexible,154,10,9,0,0,0,0,0,0,1,0,1,0,0,0,0,0,0,0,0,0,0,1,0,0,0,0,0,0,0,0,0,Not Found,Not Found,No Charge,Not Found,Not Found,Not Found,Not Found,Not Found,Not Found,Not Found,Not Found,Not Found,Not Found,2,0,Not Found,1,Not Found,Not Found,2,Apartment,
11641355,Apartamento con jardin!!!,61718174,https://www.airbnb.com/s/Andorra?page=9,75,No Description Found,Maria,Not Found,42.5585835980675,1.532194011358118,No,Flexible,155,11,9,0,0,0,0,0,0,1,0,1,0,0,0,0,0,0,0,0,0,0,1,0,0,0,0,0,0,0,0,0,Not Found,Not Found,No Charge,Not Found,Not Found,Not Found,Not Found,Not Found,Not Found,Not Found,Not Found,Not Found,Not Found,4,2,Not Found,2,Not Found,Not Found,2,Apartment,
9168892,La Pleta 3000 apartamento 4/6,10585060,https://www.airbnb.com/s/Andorra?page=9,231,No Description Found,Apartamentos,Not Found,42.57670441478885,1.6664439799563662,No,Strict,156,12,9,1,0,0,0,0,0,1,0,0,0,0,0,0,0,0,0,0,0,0,1,0,0,0,0,0,0,0,1,0,Not Found,$173.00,No Charge,Not Found,Not Found,Not Found,Not Found,Not Found,Not Found,Not Found,Not Found,Not Found,Not Found,6,1,Not Found,2,5:00 PM,10:00 AM,2,Apartment,
9770818,Piso ideal  4 pers. 2A,40675479,https://www.airbnb.com/s/Andorra?page=9,80,No Description Found,Chantal,Not Found,42.53413331726434,1.5885153255900342,No,Strict,157,13,9,0,0,0,0,0,0,1,0,0,0,0,0,0,0,0,1,0,0,0,1,0,0,0,0,0,0,0,1,0,$23.00,$288.00,No Charge,Not Found,Not Found,Not Found,Not Found,Not Found,Not Found,Not Found,Not Found,Not Found,Not Found,4,1,Not Found,1,3:00 PM,10:00 AM,2,Apartment,
2209634,El Tarter 200 metros Grandvalira.,11271214,https://www.airbnb.com/s/Andorra?page=9,72,No Description Found,Jesús,Not Found,42.57920174518467,1.651266975305432,No,Moderate,158,14,9,0,0,0,0,0,0,1,0,0,0,1,0,0,0,0,1,0,0,0,1,0,0,0,0,0,0,0,0,0,Not Found,$230.00,No Charge,Not Found,Not Found,Not Found,Not Found,Not Found,Not Found,Not Found,Not Found,Not Found,Not Found,4,1,Not Found,1,1:00 PM,12:00 PM (noon),2,Apartment,
3909495,Bright luxury first-floor apartment,17151239,https://www.airbnb.com/s/Andorra?page=9,80,No Description Found,Bruce,Not Found,42.57880124302581,1.4785194151219416,No,Strict,159,15,9,0,0,0,0,0,0,1,0,0,0,0,0,0,0,0,1,0,0,0,1,0,0,0,0,0,0,0,1,0,$58.00,$575.00,Not Found,Not Found,Not Found,Not Found,Not Found,Not Found,Not Found,Not Found,Not Found,Not Found,Not Found,2,1,Real Bed,1,Not Found,Not Found,1,Apartment,
11730053,Ático con vistas a Canillo,62387857,https://www.airbnb.com/s/Andorra?page=9,69,No Description Found,Xavier,Not Found,42.55974946955131,1.6085515640001686,No,Flexible,160,16,9,0,0,0,0,0,0,0,0,0,0,0,0,0,0,0,1,0,0,0,1,1,0,0,0,0,0,0,1,0,Not Found,Not Found,No Charge,Not Found,Not Found,Not Found,Not Found,Not Found,Not Found,Not Found,Not Found,Not Found,Not Found,2,1,Real Bed,1,Not Found,Not Found,1,Apartment,
12062277,alquiler habitación en chalet,64617467,https://www.airbnb.com/s/Andorra?page=9,69,No Description Found,Peter,Not Found,42.438529889931935,1.4923790572412028,No,Flexible,161,17,9,0,0,0,0,0,0,1,0,1,0,0,0,0,0,0,0,0,0,0,1,0,0,0,0,0,0,0,0,0,Not Found,$138.00,No Charge,Not Found,Not Found,Not Found,Not Found,Not Found,Not Found,Not Found,Not Found,Not Found,Not Found,3,1.5,Not Found,1,Not Found,Not Found,3,Chalet,
8369989,1 Bed Apartment Soldeu,44114056,https://www.airbnb.com/s/Andorra?page=9,92,No Description Found,Alan,Not Found,42.57977384601485,1.6645998333031367,No,Flexible,162,18,9,0,0,0,0,0,0,1,0,1,0,0,0,0,0,0,1,0,0,0,1,0,0,0,0,0,0,0,0,0,Not Found,Not Found,No Charge,Not Found,Not Found,Not Found,Not Found,Not Found,Not Found,Not Found,Not Found,Not Found,Not Found,4,0.5,Not Found,1,3:00 PM,12:00 PM (noon),2,Apartment,
6779508,Apto. en el centro histórico,35488325,https://www.airbnb.com/s/Andorra?page=10,41,No Description Found,Laia,Not Found,42.56596095344933,1.5996519127545659,No,Flexible,163,1,10,0,0,0,0,0,0,1,0,1,0,0,0,0,0,0,0,0,0,0,1,0,0,0,0,1,0,0,0,0,Not Found,Not Found,No Charge,Not Found,Not Found,Not Found,Not Found,Not Found,Not Found,Not Found,Not Found,Not Found,Not Found,4,1,Not Found,2,Not Found,Not Found,3,Apartment,
2469820,Els Teiers de Llorts-Spa A 1º2ª,12631933,https://www.airbnb.com/s/Andorra?page=10,115,No Description Found,Rentseason,Not Found,42.602821589813914,1.5353440465703891,No,Moderate,164,2,10,0,0,0,0,0,0,0,0,1,0,0,0,0,0,0,0,0,0,0,1,0,0,0,0,1,0,0,0,0,$78.00,Not Found,No Charge,Not Found,Not Found,Not Found,Not Found,Not Found,Not Found,Not Found,Not Found,Not Found,Not Found,5,2,Not Found,2,4:00 PM,12:00 PM (noon),2,Apartment,
2117284,Vaquers 3000 Estudio 3/5,10585060,https://www.airbnb.com/s/Andorra?page=10,107,No Description Found,Apartamentos,Not Found,42.53986127404866,1.7323585817650344,No,Strict,165,3,10,0,0,0,0,0,0,1,0,0,0,0,0,0,0,0,1,0,0,0,1,0,1,0,0,0,0,0,0,0,Not Found,$173.00,No Charge,Not Found,Not Found,Not Found,Not Found,Not Found,Not Found,Not Found,Not Found,Not Found,Not Found,5,1,Not Found,0,5:00 PM,10:00 AM,2,Apartment,
10730395,"Apartamento Familiar, El Tarter",54063728,https://www.airbnb.com/s/Andorra?page=10,127,No Description Found,Lauren,Not Found,42.58014362144491,1.650821467978686,No,Flexible,166,4,10,0,0,0,0,0,0,0,0,0,0,1,0,0,0,0,0,0,0,1,1,1,0,0,0,0,0,0,0,0,$58.00,$230.00,No Charge,Not Found,Not Found,Not Found,Not Found,Not Found,Not Found,Not Found,Not Found,Not Found,Not Found,5,2,Not Found,2,3:00 PM,11:00 AM,3,Apartment,
2163086,Rustic duplex with fireplace,4065772,https://www.airbnb.com/s/Andorra?page=10,230,No Description Found,Carles,Not Found,42.5691325843394,1.4876986706342634,No,Strict,167,5,10,0,0,0,0,0,0,1,0,0,0,0,0,0,0,0,1,0,0,0,1,0,0,0,0,0,0,0,0,0,$58.00,$230.00,No Charge,Not Found,Not Found,Not Found,Not Found,Not Found,Not Found,Not Found,Not Found,Not Found,Not Found,8,3,Not Found,3,3:00 PM,12:00 PM (noon),6,Apartment,
9722397,Отдельная комната Энкамп,50182197,https://www.airbnb.com/s/Andorra?page=10,173,No Description Found,Alexander,Not Found,42.53602178788162,1.578137627138575,No,Flexible,168,6,10,0,0,0,0,0,0,1,0,0,0,0,0,0,0,0,1,0,0,1,1,0,0,0,0,0,0,0,0,0,Not Found,Not Found,Not Found,Not Found,Not Found,Not Found,Not Found,Not Found,Not Found,Not Found,Not Found,Not Found,Not Found,1,1,Couch,1,Not Found,Not Found,1,Apartment,
903147,mountain house,4160422,https://www.airbnb.com/s/Andorra?page=10,35,No Description Found,Philip,Not Found,42.54147548075646,1.5245691131310053,No,Strict,169,7,10,0,0,0,0,0,0,1,0,1,0,0,0,0,0,0,0,0,0,0,1,0,0,0,0,0,0,0,0,0,Not Found,Not Found,$35 / night after the first guest,Not Found,Not Found,Not Found,Not Found,Not Found,Not Found,Not Found,Not Found,Not Found,Not Found,5,1.5,Not Found,3,4:00 PM,12:00 PM (noon),4,Chalet,
926521,Mountain Hostel Tarter,4985699,https://www.airbnb.com/s/Andorra?page=10,54,No Description Found,Mar,Not Found,42.58033539786503,1.6537086097906677,No,Flexible,170,8,10,0,0,0,0,0,0,1,0,0,0,0,0,0,0,0,1,0,0,0,1,0,0,0,0,0,0,0,1,0,Not Found,Not Found,$54 / night after the first guest,Not Found,Not Found,Not Found,Not Found,Not Found,Not Found,Not Found,Not Found,Not Found,Not Found,16+,4,Not Found,1,5:00 PM,11:00 AM,16,Chalet,
11977716,Tranquil·litat i natura a Andorra,64006048,https://www.airbnb.com/s/Andorra?page=10,115,No Description Found,Roser,Not Found,42.56209093484357,1.5940105172085801,No,Flexible,171,9,10,0,0,0,0,0,0,0,0,1,0,0,0,0,0,0,0,0,0,0,1,0,0,0,0,1,0,0,0,0,Not Found,Not Found,No Charge,Not Found,Not Found,Not Found,Not Found,Not Found,Not Found,Not Found,Not Found,Not Found,Not Found,7,2,Not Found,2,Not Found,Not Found,4,Apartment,
1473915,Superb Ski In/Out Apartment ,7889786,https://www.airbnb.com/s/Andorra?page=10,115,No Description Found,Olga,Not Found,42.57865536007392,1.6489640985288108,No,Moderate,172,10,10,0,0,0,0,0,0,1,0,1,0,0,0,0,0,0,0,0,0,0,1,0,0,0,0,0,0,0,0,0,Not Found,Not Found,No Charge,Not Found,Not Found,Not Found,Not Found,Not Found,Not Found,Not Found,Not Found,Not Found,Not Found,9,2,Not Found,2,4:00 PM,11:00 AM,7,Apartment,
2721041,Hab. doble privada - Matrimonial,13903223,https://www.airbnb.com/s/Andorra?page=10,52,No Description Found,André,Not Found,42.577242689700704,1.6287437169756134,No,Moderate,173,11,10,0,0,0,0,0,0,1,0,1,0,0,0,0,0,0,1,0,0,0,0,0,0,0,0,1,0,0,0,0,Not Found,Not Found,No Charge,Not Found,Not Found,Not Found,Not Found,Not Found,Not Found,Not Found,Not Found,Not Found,Not Found,2,1,Real Bed,1,2:00 PM,12:00 PM (noon),1,Bed & Breakfast,
12010743,"Apartamento, El Tarter",64245304,https://www.airbnb.com/s/Andorra?page=10,127,No Description Found,Lauren,Not Found,42.58061111923469,1.6520335791148009,No,Flexible,174,12,10,0,0,0,0,0,0,0,0,1,0,0,0,0,0,0,1,0,0,0,1,1,0,0,0,0,0,0,0,0,$58.00,$230.00,No Charge,Not Found,Not Found,Not Found,Not Found,Not Found,Not Found,Not Found,Not Found,Not Found,Not Found,5,1,Not Found,2,Not Found,Not Found,5,Apartment,
10591972,Appartement 35m² au pied des pistes,54647889,https://www.airbnb.com/s/Andorra?page=10,300,No Description Found,Christian,Not Found,42.541659464204514,1.7314348950895473,No,Flexible,175,13,10,0,0,0,0,0,0,1,0,1,0,0,0,0,0,0,1,0,0,0,1,0,0,0,0,0,0,0,0,0,Not Found,Not Found,No Charge,Not Found,Not Found,Not Found,Not Found,Not Found,Not Found,Not Found,Not Found,Not Found,Not Found,6,1,Not Found,0,Not Found,Not Found,4,Apartment,
10054685,Habitacion simple(2per) y matrimoni,32152586,https://www.airbnb.com/s/Andorra?page=10,18,No Description Found,Javi,Not Found,42.57857881643294,1.653328968072106,No,Strict,176,14,10,0,0,0,0,0,0,0,0,1,0,0,0,0,0,0,1,0,0,0,1,0,0,0,0,0,0,0,1,0,$12.00,$115.00,$23 / night after the first guest,Not Found,Not Found,Not Found,Not Found,Not Found,Not Found,Not Found,Not Found,Not Found,Not Found,2,1,Not Found,1,Not Found,11:00 AM,2,Apartment,
10508619,Habitación grande en Atico,9151117,https://www.airbnb.com/s/Andorra?page=10,46,No Description Found,Xavier,Not Found,42.50853097563557,1.5190134941516544,No,Flexible,177,15,10,0,0,0,0,0,0,1,0,0,0,0,0,0,0,0,1,0,0,0,1,0,0,0,0,0,0,0,0,0,Not Found,Not Found,No Charge,Not Found,Not Found,Not Found,Not Found,Not Found,Not Found,Not Found,Not Found,Not Found,Not Found,2,1,Real Bed,1,Not Found,Not Found,1,Apartment,
4346691,APARTAMENTOS T. PRAT DE LES MINES,22564842,https://www.airbnb.com/s/Andorra?page=10,105,No Description Found,Beatriu,Not Found,42.60013612934063,1.5337180818893126,No,Moderate,178,16,10,0,0,0,0,0,0,1,0,0,0,0,0,0,0,0,1,0,0,0,1,0,0,0,0,1,0,0,0,0,Not Found,Not Found,Not Found,Not Found,Not Found,Not Found,Not Found,Not Found,Not Found,Not Found,Not Found,Not Found,Not Found,6,2,Not Found,3,5:00 PM,11:00 AM,3,Apartment,
5179977,Els Teiers de Llorts-Spa B 1º2ª,12631933,https://www.airbnb.com/s/Andorra?page=10,138,No Description Found,Rentseason,Not Found,42.60379280373116,1.5359545503981142,No,Flexible,179,17,10,0,0,0,0,0,0,0,0,1,0,0,0,0,0,0,0,0,0,0,1,0,0,0,0,1,0,0,0,0,$78.00,Not Found,No Charge,Not Found,Not Found,Not Found,Not Found,Not Found,Not Found,Not Found,Not Found,Not Found,Not Found,4,2,Not Found,2,4:00 PM,12:00 PM (noon),2,Apartment,
11294710,Apartment in respected neighborhood,59018625,https://www.airbnb.com/s/Andorra?page=10,84,No Description Found,Kirill,Not Found,42.55317234996914,1.5287027944521894,No,Moderate,180,18,10,0,0,0,0,0,0,0,0,1,0,0,0,0,0,0,1,0,0,0,1,0,0,0,0,0,0,0,0,0,Not Found,Not Found,No Charge,Not Found,Not Found,Not Found,Not Found,Not Found,Not Found,Not Found,Not Found,Not Found,Not Found,5,2,Not Found,2,Not Found,Not Found,4,Apartment,
2116728,Cibos 3000 Estudio 2,10585060,https://www.airbnb.com/s/Andorra?page=11,80,No Description Found,Apartamentos,Not Found,42.45901641990774,1.4919930779408273,No,Strict,181,1,11,0,0,0,0,0,0,1,0,1,0,0,0,0,0,0,1,0,0,0,1,0,0,0,0,0,0,0,0,0,Not Found,$173.00,No Charge,Not Found,Not Found,Not Found,Not Found,Not Found,Not Found,Not Found,Not Found,Not Found,Not Found,2,1,Pull-out Sofa,0,5:00 PM,10:00 AM,1,Apartment,
10078444,Orien 4-24 La Massana Pie de pistas,12631933,https://www.airbnb.com/s/Andorra?page=11,184,No Description Found,Rentseason,Not Found,42.54342610118993,1.5176556537542165,No,Flexible,182,2,11,0,0,0,0,0,0,1,0,1,0,0,0,0,0,0,1,0,0,0,1,0,0,0,0,0,0,0,0,0,$78.00,Not Found,No Charge,Not Found,Not Found,Not Found,Not Found,Not Found,Not Found,Not Found,Not Found,Not Found,Not Found,4,2,Not Found,2,Not Found,Not Found,3,Apartment,
2117522,Paradis Blanc 3000 Estudio 4/6,10585060,https://www.airbnb.com/s/Andorra?page=11,190,No Description Found,Apartamentos,Not Found,42.54050824408167,1.732855599697683,No,Strict,183,3,11,0,0,0,0,0,0,1,0,0,0,0,0,0,0,0,1,0,0,0,1,0,1,0,0,0,0,0,0,0,Not Found,$173.00,No Charge,Not Found,Not Found,Not Found,Not Found,Not Found,Not Found,Not Found,Not Found,Not Found,Not Found,6,1,Not Found,0,5:00 PM,10:00 AM,2,Apartment,
3048373,ATTIC LA PLETA DEL TARTER,15519809,https://www.airbnb.com/s/Andorra?page=11,105,No Description Found,Matt,Not Found,42.580254278225084,1.652302825500516,No,Strict,184,4,11,0,0,0,0,0,0,1,0,1,0,0,0,0,0,0,0,0,0,0,1,0,0,0,0,0,0,0,0,0,Not Found,$288.00,No Charge,Not Found,Not Found,Not Found,Not Found,Not Found,Not Found,Not Found,Not Found,Not Found,Not Found,4,2,Not Found,2,3:00 PM,12:00 PM (noon),2,Apartment,
11002555,Appartement  de 2 chambres  (70M2),57093664,https://www.airbnb.com/s/Andorra?page=11,149,No Description Found,Marie-Helene,Not Found,42.57651916577483,1.6662693258621812,No,Flexible,185,5,11,0,0,0,0,0,0,1,0,1,0,0,0,0,0,0,0,0,0,0,1,0,0,0,0,0,0,0,0,0,Not Found,Not Found,No Charge,Not Found,Not Found,Not Found,Not Found,Not Found,Not Found,Not Found,Not Found,Not Found,Not Found,7,1,Not Found,2,Not Found,Not Found,4,Condominium,
9205568,Apartamento en Arinsal,6233573,https://www.airbnb.com/s/Andorra?page=11,115,No Description Found,Almudena,Not Found,42.570866429214895,1.4895765283652436,No,Flexible,186,6,11,0,0,0,0,0,0,1,0,1,0,0,0,0,0,0,1,0,0,0,1,0,0,0,0,0,0,0,0,0,$58.00,$115.00,No Charge,Not Found,Not Found,Not Found,Not Found,Not Found,Not Found,Not Found,Not Found,Not Found,Not Found,4,1.5,Not Found,1,1:00 PM,12:00 PM (noon),3,Condominium,
10035497,Tarter 4 people,51418605,https://www.airbnb.com/s/Andorra?page=11,58,No Description Found,Sebastian,Not Found,42.57744691079224,1.6535085558097242,No,Strict,187,7,11,0,0,0,0,0,0,1,0,1,0,0,0,0,0,0,1,0,0,0,1,0,0,0,0,0,0,0,0,0,$46.00,Not Found,No Charge,Not Found,Not Found,Not Found,Not Found,Not Found,Not Found,Not Found,Not Found,Not Found,Not Found,4,1,Not Found,1,6:00 PM,12:00 PM (noon),3,Apartment,
8739413,Pie de pistas Grandvalira,45849006,https://www.airbnb.com/s/Andorra?page=11,115,No Description Found,Ramon,Not Found,42.57947745622252,1.6614003088769531,No,Strict,188,8,11,0,0,0,0,0,0,1,0,1,0,0,0,0,0,0,1,0,0,0,1,0,0,0,0,0,0,0,0,0,$40.00,$345.00,No Charge,Not Found,Not Found,Not Found,Not Found,Not Found,Not Found,Not Found,Not Found,Not Found,Not Found,4,1,Not Found,1,5:00 PM,11:00 AM,2,Apartment,
11187352,ÁTICO LOFT DUPLEX vistas 360º y Sol,1865590,https://www.airbnb.com/s/Andorra?page=11,230,No Description Found,Juan,Not Found,42.49080976228419,1.496091443358544,No,Flexible,189,9,11,0,0,0,0,0,0,1,0,1,0,0,0,0,0,0,0,0,0,0,1,0,0,0,0,0,0,0,0,0,Not Found,Not Found,No Charge,Not Found,Not Found,Not Found,Not Found,Not Found,Not Found,Not Found,Not Found,Not Found,Not Found,6,2,Not Found,3,Not Found,Not Found,4,Loft,
4704238,Precioso Apto. Espectacular vista.,4349308,https://www.airbnb.com/s/Andorra?page=11,104,No Description Found,May,Not Found,42.55707262787468,1.6034596336781484,No,Strict,190,10,11,0,0,0,0,0,0,0,0,1,0,0,0,0,0,0,1,0,0,0,1,0,0,0,0,0,0,0,1,0,$29.00,Not Found,$17 / night after 4 guests,Not Found,Not Found,Not Found,Not Found,Not Found,Not Found,Not Found,Not Found,Not Found,Not Found,6,2,Not Found,2,3:00 PM,12:00 PM (noon),3,Apartment,
11001500,"Sol, El Tarter, cerca de pistas",4065772,https://www.airbnb.com/s/Andorra?page=11,138,No Description Found,Carles,Not Found,42.58111645709659,1.6503270434210957,No,Strict,191,11,11,0,0,0,0,0,0,1,0,0,0,0,0,0,0,0,1,0,0,0,1,0,0,0,0,1,0,0,0,0,$58.00,Not Found,No Charge,Not Found,Not Found,Not Found,Not Found,Not Found,Not Found,Not Found,Not Found,Not Found,Not Found,6,2,Not Found,2,Not Found,Not Found,4,Apartment,
11983918,Ideal per vacances amb família,64006048,https://www.airbnb.com/s/Andorra?page=11,115,No Description Found,Roser,Not Found,42.56299806784247,1.5930600540966349,No,Flexible,192,12,11,0,0,0,0,0,0,0,0,1,0,0,0,0,0,0,0,0,0,0,1,0,0,0,0,1,0,0,0,0,Not Found,Not Found,No Charge,Not Found,Not Found,Not Found,Not Found,Not Found,Not Found,Not Found,Not Found,Not Found,Not Found,7,2,Not Found,2,Not Found,Not Found,2,Apartment,
12000443,"A peu de pistes, tot confort.",64006048,https://www.airbnb.com/s/Andorra?page=11,112,No Description Found,Roser,Not Found,42.57831295727806,1.650944264402297,No,Flexible,193,13,11,0,0,0,0,0,0,0,0,1,0,0,0,0,0,0,0,0,0,0,1,0,0,0,0,1,0,0,0,0,Not Found,Not Found,No Charge,Not Found,Not Found,Not Found,Not Found,Not Found,Not Found,Not Found,Not Found,Not Found,Not Found,4,1,Real Bed,1,Not Found,Not Found,1,Apartment,
9858511,Piso ideal 4 pers. 3B,40675479,https://www.airbnb.com/s/Andorra?page=11,80,No Description Found,Chantal,Not Found,42.53508541269317,1.5884930853653467,No,Strict,194,14,11,0,0,0,0,0,0,1,0,0,0,0,0,0,0,0,1,0,0,0,1,0,0,0,0,0,0,0,1,0,$23.00,$288.00,No Charge,Not Found,Not Found,Not Found,Not Found,Not Found,Not Found,Not Found,Not Found,Not Found,Not Found,4,1,Not Found,1,3:00 PM,10:00 AM,2,Apartment,
10139408,"Novell, Canillo a 100m. telecabina",4065772,https://www.airbnb.com/s/Andorra?page=11,138,No Description Found,Carles,Not Found,42.568411439761306,1.602355870565765,No,Strict,195,15,11,0,0,0,0,0,0,1,0,1,0,0,0,0,0,0,0,0,0,0,1,0,0,0,0,0,0,0,0,0,$58.00,$230.00,No Charge,Not Found,Not Found,Not Found,Not Found,Not Found,Not Found,Not Found,Not Found,Not Found,Not Found,6,2,Not Found,2,3:00 PM,12:00 PM (noon),3,Apartment,
9765104,APARTAMENTO PRINCESA L23 4p. PAS  C,14081684,https://www.airbnb.com/s/Andorra?page=11,109,No Description Found,Inocencia,Not Found,42.540730353462564,1.7305368994963382,No,Flexible,196,16,11,0,0,0,0,0,0,1,0,1,0,0,0,0,0,0,1,0,0,0,1,0,0,0,0,0,0,0,0,0,$43.00,$173.00,No Charge,Not Found,Not Found,Not Found,Not Found,Not Found,Not Found,Not Found,Not Found,Not Found,Not Found,4,2,Real Bed,1,Not Found,Not Found,1,Apartment,
12013753,Sol i natura per tota la família,64006048,https://www.airbnb.com/s/Andorra?page=11,127,No Description Found,Roser,Not Found,42.58000414697915,1.6504956034747007,No,Flexible,197,17,11,0,0,0,0,0,0,0,0,1,0,0,0,0,0,0,0,0,0,0,1,0,0,0,0,1,0,0,0,0,Not Found,Not Found,No Charge,Not Found,Not Found,Not Found,Not Found,Not Found,Not Found,Not Found,Not Found,Not Found,Not Found,8,2,Not Found,3,Not Found,Not Found,5,Apartment,
3941425,"Spacious apartment, center Massana",4065772,https://www.airbnb.com/s/Andorra?page=11,115,No Description Found,Carles,Not Found,42.54427491769078,1.516022260887937,No,Strict,198,18,11,0,0,0,0,0,0,1,0,1,0,0,0,0,0,0,0,0,0,0,1,0,0,0,0,1,0,0,0,0,$58.00,$230.00,No Charge,Not Found,Not Found,Not Found,Not Found,Not Found,Not Found,Not Found,Not Found,Not Found,Not Found,4,1,Not Found,1,3:00 PM,12:00 PM (noon),2,Apartment,
9043438,"Genciana, EL Tarter , Grandvalira",4065772,https://www.airbnb.com/s/Andorra?page=12,115,No Description Found,Carles,Not Found,42.579406338556936,1.643471301104217,No,Strict,199,1,12,0,0,0,0,0,0,1,0,1,0,0,0,0,0,0,0,0,0,0,1,0,0,0,0,1,0,0,0,0,$58.00,$230.00,No Charge,Not Found,Not Found,Not Found,Not Found,Not Found,Not Found,Not Found,Not Found,Not Found,Not Found,4,1,Not Found,0,3:00 PM,12:00 PM (noon),2,Apartment,
4975118,a lovely house,25645512,https://www.airbnb.com/s/Andorra?page=12,140,No Description Found,Laurent,Not Found,42.46236788412836,1.4986360941650534,No,Moderate,200,2,12,0,0,0,0,0,0,1,0,1,0,0,0,0,0,0,1,0,0,0,1,0,0,0,0,0,0,0,0,0,$58.00,$575.00,Not Found,Not Found,Not Found,Not Found,Not Found,Not Found,Not Found,Not Found,Not Found,Not Found,Not Found,6,2,Not Found,3,10:00 AM,12:00 PM (noon),4,House,
10104207,Apartamento Rustico con Chimenea,7889786,https://www.airbnb.com/s/Andorra?page=12,173,No Description Found,Olga,Not Found,42.57984690064811,1.6518761481496227,No,Flexible,201,3,12,0,0,0,0,0,0,1,0,0,0,0,0,0,0,0,0,0,0,0,1,0,0,0,0,1,0,0,0,0,Not Found,Not Found,No Charge,Not Found,Not Found,Not Found,Not Found,Not Found,Not Found,Not Found,Not Found,Not Found,Not Found,6,1,Not Found,2,Not Found,Not Found,4,Apartment,
9646871,Suite Privada.,49877471,https://www.airbnb.com/s/Andorra?page=12,109,No Description Found,Rosa,Not Found,42.532020126225206,1.5739187355408983,No,Flexible,202,4,12,0,0,0,0,0,0,1,0,1,0,0,0,0,0,0,0,0,0,0,0,0,0,0,0,1,0,0,0,0,Not Found,Not Found,No Charge,Not Found,Not Found,Not Found,Not Found,Not Found,Not Found,Not Found,Not Found,Not Found,Not Found,4,1,Not Found,1,Not Found,Not Found,2,Bed & Breakfast,
672485,A 5 minute walk to Soldeu ski lift,3410596,https://www.airbnb.com/s/Andorra?page=12,124,No Description Found,Vivienne,Not Found,42.578801765471404,1.6658133706818719,No,Strict,203,5,12,0,0,0,0,0,0,1,0,1,0,0,0,0,0,0,0,0,0,0,1,0,0,0,0,0,0,0,0,0,$73.00,$218.00,$15 / night after 4 guests,Not Found,Not Found,Not Found,Not Found,Not Found,Not Found,Not Found,Not Found,Not Found,Not Found,5,1,Not Found,2,4:00 PM,11:00 AM,4,Apartment,
2720304,Hab. doble privada - Dos camas,13903223,https://www.airbnb.com/s/Andorra?page=12,46,No Description Found,André,Not Found,42.57841587956981,1.6270370096506277,No,Moderate,204,6,12,0,0,0,0,0,0,1,0,1,0,0,0,0,0,0,1,0,0,0,0,1,0,0,0,0,0,0,0,0,Not Found,Not Found,No Charge,Not Found,Not Found,Not Found,Not Found,Not Found,Not Found,Not Found,Not Found,Not Found,Not Found,2,1,Not Found,1,2:00 PM,12:00 PM (noon),2,Bed & Breakfast,
4708624,Apartment with terrace in Encamp,4065772,https://www.airbnb.com/s/Andorra?page=12,138,No Description Found,Carles,Not Found,42.53421451650924,1.5723932872933932,No,Strict,205,7,12,0,0,0,0,0,0,0,0,0,0,0,0,0,0,0,0,0,0,0,0,0,0,0,0,0,0,0,0,0,$58.00,$230.00,No Charge,Not Found,Not Found,Not Found,Not Found,Not Found,Not Found,Not Found,Not Found,Not Found,Not Found,6,2,Not Found,2,3:00 PM,12:00 PM (noon),4,Apartment,
774007,Nice and warm attic in Encamp,4065772,https://www.airbnb.com/s/Andorra?page=12,138,No Description Found,Carles,Not Found,42.533447972035724,1.5826710840639464,No,Strict,206,8,12,0,0,0,0,0,0,1,0,0,0,0,0,0,0,0,1,0,0,0,1,0,0,0,0,0,0,0,1,0,$58.00,$230.00,No Charge,Not Found,Not Found,Not Found,Not Found,Not Found,Not Found,Not Found,Not Found,Not Found,Not Found,6,1,Not Found,2,3:00 PM,12:00 PM (noon),6,Apartment,
1098180,Cozy flat in the center Massana,4065772,https://www.airbnb.com/s/Andorra?page=12,115,No Description Found,Carles,Not Found,42.542904962406425,1.5171275699790152,No,Strict,207,9,12,0,0,0,0,0,0,1,0,0,0,0,0,0,0,0,1,0,0,0,1,0,0,0,0,0,0,0,1,0,$58.00,$230.00,No Charge,Not Found,Not Found,Not Found,Not Found,Not Found,Not Found,Not Found,Not Found,Not Found,Not Found,4,1,Real Bed,1,3:00 PM,12:00 PM (noon),1,Apartment,
9671259,El Nido del Buho,30839719,https://www.airbnb.com/s/Andorra?page=12,69,No Description Found,José Fernando,Not Found,42.58037345606092,1.6614039538976229,No,Strict,208,10,12,0,0,0,0,0,0,1,0,1,0,0,0,0,0,0,0,0,0,0,1,0,0,0,0,1,0,0,0,0,$35.00,$230.00,No Charge,Not Found,Not Found,Not Found,Not Found,Not Found,Not Found,Not Found,Not Found,Not Found,Not Found,4,1,Not Found,1,Not Found,12:00 AM (midnight),3,Condominium,
2114677,Anem 3000 Apartamento 2/4,10585060,https://www.airbnb.com/s/Andorra?page=12,104,No Description Found,Apartamentos,Not Found,42.58236929074349,1.519546416656916,No,Strict,209,11,12,0,0,0,0,0,0,1,0,1,0,0,0,0,0,0,1,0,0,0,1,0,0,0,0,0,0,0,0,0,Not Found,$173.00,No Charge,Not Found,Not Found,Not Found,Not Found,Not Found,Not Found,Not Found,Not Found,Not Found,Not Found,4,1,Real Bed,1,5:00 PM,10:00 AM,1,Apartment,
11690972,Apartamento Escapadas centro,22875897,https://www.airbnb.com/s/Andorra?page=12,149,No Description Found,Eugenia,Not Found,42.50178496093158,1.5103849796795172,No,Flexible,210,12,12,0,0,0,0,0,0,1,0,1,0,0,0,0,0,0,1,0,0,0,1,0,0,0,0,0,0,0,0,0,Not Found,Not Found,No Charge,Not Found,Not Found,Not Found,Not Found,Not Found,Not Found,Not Found,Not Found,Not Found,Not Found,4,1,Not Found,2,Not Found,Not Found,3,Condominium,
9203530,APARTAMENTO DE LUJO EN SOLDEU,13881779,https://www.airbnb.com/s/Andorra?page=12,173,No Description Found,Núria,Not Found,42.580814852411386,1.6635841450587423,No,Strict,211,13,12,0,0,0,0,0,0,1,0,1,0,0,0,0,0,0,1,0,0,0,1,0,0,0,0,0,0,0,0,0,$69.00,$345.00,No Charge,Not Found,Not Found,Not Found,Not Found,Not Found,Not Found,Not Found,Not Found,Not Found,Not Found,6,1,Not Found,3,4:00 PM,12:00 PM (noon),6,Apartment,
4536629,Pas Studio,23523202,https://www.airbnb.com/s/Andorra?page=12,61,No Description Found,Pas,Not Found,42.570990859056515,1.6779033104479855,No,Strict,212,14,12,0,0,0,0,0,0,1,0,1,0,0,0,0,0,0,1,0,0,0,1,0,0,0,0,0,0,0,0,0,$63.00,$173.00,No Charge,Not Found,Not Found,Not Found,Not Found,Not Found,Not Found,Not Found,Not Found,Not Found,Not Found,4,1,Not Found,1,4:00 PM,12:00 PM (noon),3,Apartment,
5235718,Appartement standing 135m2 Andorre,11468273,https://www.airbnb.com/s/Andorra?page=12,337,No Description Found,Dariya,Not Found,42.55001163383706,1.512661070448849,No,Strict,213,15,12,0,0,0,0,0,0,1,0,1,0,0,0,0,0,0,0,0,0,0,1,0,0,0,0,1,0,0,0,0,$138.00,"$2,301.00",Not Found,Not Found,Not Found,Not Found,Not Found,Not Found,Not Found,Not Found,Not Found,Not Found,Not Found,4,2.5,Not Found,2,4:00 PM,10:00 AM,2,Apartment,
10078194,Salanca O 4-3 Canillo pie de pistas,12631933,https://www.airbnb.com/s/Andorra?page=12,184,No Description Found,Rentseason,Not Found,42.56642697378192,1.6006669693585183,No,Flexible,214,16,12,0,0,0,0,0,0,1,0,0,0,0,0,0,0,0,1,0,0,0,1,0,0,0,0,0,0,0,1,0,$78.00,Not Found,No Charge,Not Found,Not Found,Not Found,Not Found,Not Found,Not Found,Not Found,Not Found,Not Found,Not Found,4,1,Not Found,2,Not Found,Not Found,2,Apartment,
10457296,Apartamento a pie de pistas.,7889786,https://www.airbnb.com/s/Andorra?page=12,115,No Description Found,Olga,Not Found,42.58073770135997,1.6482187840670022,No,Flexible,215,17,12,0,0,0,0,0,0,1,0,1,0,0,0,0,0,0,0,0,0,0,1,0,0,0,0,0,0,0,0,0,Not Found,Not Found,No Charge,Not Found,Not Found,Not Found,Not Found,Not Found,Not Found,Not Found,Not Found,Not Found,Not Found,5,1,Not Found,1,Not Found,Not Found,3,Apartment,
7683299,Cozy 3 bedroom apartment in Canillo,40350682,https://www.airbnb.com/s/Andorra?page=12,69,No Description Found,Leszek,Not Found,42.56768037073362,1.6040723070073322,No,Flexible,216,18,12,0,0,0,0,0,0,0,0,1,0,0,0,0,0,0,1,0,0,0,1,0,0,0,0,0,0,0,0,0,$69.00,Not Found,Not Found,Not Found,Not Found,Not Found,Not Found,Not Found,Not Found,Not Found,Not Found,Not Found,Not Found,6,1,Not Found,3,Not Found,Not Found,4,Apartment,
5016632,Chalet JANET Bed & Breakfast ***,15674972,https://www.airbnb.com/s/Andorra?page=13,71,No Description Found,Alexis,Not Found,42.56136284192442,1.4978933111290416,No,Strict,217,1,13,0,0,0,0,0,0,1,0,1,0,0,0,0,0,0,0,0,0,0,1,0,0,0,0,1,0,0,0,0,$46.00,$173.00,$40 / night after 3 guests,Not Found,Not Found,Not Found,Not Found,Not Found,Not Found,Not Found,Not Found,Not Found,Not Found,16+,8+,Not Found,6,3:00 PM,10:00 AM,16,Bed & Breakfast,
8951446,Apartamentos dúplex en Soldeu,22875897,https://www.airbnb.com/s/Andorra?page=13,230,No Description Found,Eugenia,Not Found,42.579454811195355,1.664423175595135,No,Flexible,218,2,13,0,0,0,0,0,0,1,0,1,0,0,0,0,0,0,0,0,0,0,1,0,0,0,0,0,0,0,0,0,$58.00,$288.00,$23 / night after 4 guests,Not Found,Not Found,Not Found,Not Found,Not Found,Not Found,Not Found,Not Found,Not Found,Not Found,6,2,Not Found,2,7:00 PM,11:00 AM,4,Apartment,
9502540,El Tarter Chalet Triplex,32099204,https://www.airbnb.com/s/Andorra?page=13,101,No Description Found,Laurent,Not Found,42.580769958559046,1.6517196547552369,No,Strict,219,3,13,0,0,0,0,0,0,1,0,1,0,0,0,0,0,0,0,0,0,0,1,0,0,0,0,0,0,0,0,0,$69.00,$230.00,No Charge,Not Found,Not Found,Not Found,Not Found,Not Found,Not Found,Not Found,Not Found,Not Found,Not Found,10,2,Not Found,3,3:00 PM,11:00 AM,8,Apartment,
10308673,résidence la Dorada el Tarter,53040959,https://www.airbnb.com/s/Andorra?page=13,112,No Description Found,Nelly,Not Found,42.579852727629735,1.6385445386012092,No,Flexible,220,4,13,0,0,0,0,0,0,1,0,1,0,0,0,0,0,0,1,0,0,0,1,0,0,0,0,0,0,0,0,0,Not Found,Not Found,No Charge,Not Found,$633 /week,Not Found,Not Found,Not Found,Not Found,Not Found,Not Found,Not Found,Not Found,4,1,Not Found,1,Not Found,Not Found,3,Apartment,
9468296,beau T3 SOLDEU ensoleille avec vue,49069178,https://www.airbnb.com/s/Andorra?page=13,173,No Description Found,Patrice,Not Found,42.56085712290105,1.685247286790974,No,Moderate,221,5,13,0,0,0,0,0,0,1,0,1,0,0,0,0,0,0,0,0,0,0,1,0,0,0,0,0,0,0,0,0,$46.00,$690.00,Not Found,Not Found,Not Found,Not Found,Not Found,Not Found,Not Found,Not Found,Not Found,Not Found,Not Found,4,1,Not Found,2,2:00 PM,2:00 PM,2,Apartment,
9285787,"Xalet acollidor: ski, natura, trek",188061,https://www.airbnb.com/s/Andorra?page=13,345,No Description Found,Fina,Not Found,42.5749716682121,1.4820661364790328,No,Flexible,222,6,13,0,0,0,0,0,0,1,0,0,0,0,0,0,0,0,1,0,0,0,1,0,0,0,0,0,0,0,0,0,Not Found,Not Found,No Charge,Not Found,Not Found,Not Found,Not Found,Not Found,Not Found,Not Found,Not Found,Not Found,Not Found,10,2,Not Found,5,Not Found,Not Found,8,Chalet,
5994768,"Ático ""Els Teiers de Llorts - Spa """,12631933,https://www.airbnb.com/s/Andorra?page=13,196,No Description Found,Rentseason,Not Found,42.604421530215035,1.5362411178118414,No,Moderate,223,7,13,0,0,0,0,0,0,0,0,1,0,0,0,0,0,0,0,0,0,0,1,0,0,0,0,1,0,0,0,0,$78.00,Not Found,No Charge,Not Found,Not Found,Not Found,Not Found,Not Found,Not Found,Not Found,Not Found,Not Found,Not Found,5,2,Not Found,2,4:00 PM,12:00 PM (noon),3,Apartment,
8790050,"comodidad,relajacion entre montañas",46065908,https://www.airbnb.com/s/Andorra?page=13,161,No Description Found,Paqui,Not Found,42.57205059963956,1.593595335031111,No,Flexible,224,8,13,0,0,0,0,0,0,0,0,1,0,0,0,0,0,0,1,0,0,0,0,1,0,0,0,1,0,0,0,0,Not Found,Not Found,No Charge,Not Found,Not Found,Not Found,Not Found,Not Found,Not Found,Not Found,Not Found,Not Found,Not Found,4,1,Not Found,1,Not Found,Not Found,4,House,
10458825,"Apartament amb vista 1,5 km Canillo",53889798,https://www.airbnb.com/s/Andorra?page=13,40,No Description Found,Josep,Not Found,42.564532972260295,1.6007758237890806,No,Flexible,225,9,13,0,0,0,0,0,0,1,0,0,0,0,0,0,0,0,1,0,0,0,1,0,0,0,0,0,0,0,0,0,$29.00,Not Found,$6 / night after 3 guests,Not Found,Not Found,Not Found,Not Found,Not Found,Not Found,Not Found,Not Found,Not Found,Not Found,4,1,Not Found,1,Not Found,Not Found,2,Apartment,
5186699,Els Teiers de Llorts-Spa B 2º2ª,12631933,https://www.airbnb.com/s/Andorra?page=13,138,No Description Found,Rentseason,Not Found,42.60380742606799,1.5367004030397806,No,Flexible,226,10,13,0,0,0,0,0,0,0,0,1,0,0,0,0,0,0,0,0,0,0,1,0,0,0,0,1,0,0,0,0,$78.00,Not Found,No Charge,Not Found,Not Found,Not Found,Not Found,Not Found,Not Found,Not Found,Not Found,Not Found,Not Found,4,2,Not Found,2,4:00 PM,Not Found,2,Apartment,
2116712,Anem 3000 Apartamento 6/8,10585060,https://www.airbnb.com/s/Andorra?page=13,218,No Description Found,Apartamentos,Not Found,42.58104403712706,1.519657901152425,No,Strict,227,11,13,0,0,0,0,0,0,1,0,1,0,0,0,0,0,0,1,0,0,0,1,0,0,0,0,0,0,0,0,0,Not Found,$173.00,No Charge,Not Found,Not Found,Not Found,Not Found,Not Found,Not Found,Not Found,Not Found,Not Found,Not Found,8,1,Not Found,3,5:00 PM,10:00 AM,3,Apartment,
10113829,Apartamento Pas ideal esquiadores,51902294,https://www.airbnb.com/s/Andorra?page=13,46,No Description Found,Juan Carlos,Not Found,42.53909998478289,1.7290388770138034,No,Flexible,228,12,13,0,0,0,0,0,0,1,0,1,0,0,0,0,0,0,1,0,0,0,1,0,0,0,0,0,0,0,0,0,Not Found,Not Found,No Charge,Not Found,Not Found,Not Found,Not Found,Not Found,Not Found,Not Found,Not Found,Not Found,Not Found,4,1,Not Found,0,Not Found,Not Found,4,Apartment,
4569037,"Bonito apto en Soldeu, gran Terraza",4349308,https://www.airbnb.com/s/Andorra?page=13,92,No Description Found,May,Not Found,42.583358611797514,1.6636450148160762,No,Strict,229,13,13,0,0,0,0,0,0,1,0,0,0,0,0,0,0,0,1,0,0,0,1,0,0,0,0,0,0,0,1,0,$29.00,Not Found,No Charge,Not Found,Not Found,Not Found,Not Found,Not Found,Not Found,Not Found,Not Found,Not Found,Not Found,2,1,Real Bed,1,3:00 PM,12:00 PM (noon),1,Apartment,
844506,Casa Vella Garibaldi,4013564,https://www.airbnb.com/s/Andorra?page=13,287,No Description Found,Fermi,Not Found,42.54475881099584,1.4727988152235196,No,Strict,230,14,13,0,0,0,0,0,0,1,0,0,0,0,0,0,0,0,1,0,0,0,1,0,0,0,0,0,0,0,1,0,Not Found,Not Found,No Charge,Not Found,Not Found,Not Found,Not Found,Not Found,Not Found,Not Found,Not Found,Not Found,Not Found,10,2,Not Found,4,6:00 PM,12:00 PM (noon),7,House,
1010978,Flat next to center and cable car,4065772,https://www.airbnb.com/s/Andorra?page=13,138,No Description Found,Carles,Not Found,42.56661028086915,1.598659109013478,No,Strict,231,15,13,0,0,0,0,0,0,1,0,0,0,0,0,0,0,0,1,0,0,0,1,0,0,0,0,0,0,0,1,0,$58.00,$230.00,No Charge,Not Found,Not Found,Not Found,Not Found,Not Found,Not Found,Not Found,Not Found,Not Found,Not Found,6,1.5,Not Found,2,3:00 PM,12:00 PM (noon),4,Apartment,
7412907,Apartamento con 6 camas compartidas,19425368,https://www.airbnb.com/s/Andorra?page=13,29,No Description Found,Alberto,Not Found,42.57674828978262,1.4818402782653617,No,Flexible,232,16,13,0,0,0,0,0,0,1,0,1,0,0,0,0,0,0,1,0,0,0,0,0,0,0,0,1,0,0,0,0,Not Found,Not Found,$29 / night after the first guest,Not Found,Not Found,Not Found,Not Found,Not Found,Not Found,Not Found,Not Found,Not Found,Not Found,6,1,Not Found,1,Not Found,Not Found,6,Apartment,
